{
  "data": {
    "stations": [
      {
        "capacity": 8,
        "is_valet_station": false,
        "is_virtual_station": false,
        "lat": 46.326595,
        "lon": -0.423786,
        "name": [
          {
            "language": "fr",
            "text": "SOUCHE EGLISE"
          }
        ],
        "rental_uris": {
          "web": "https://tanlib.ecovelo.mobi/#/station/stn_KpvV5inKa4yuGXsUkiwSxa"
        },
        "station_id": "stn_KpvV5inKa4yuGXsUkiwSxa"
      },
      {
        "capacity": 8,
        "is_valet_station": false,
        "is_virtual_station": false,
        "lat": 46.358768,
        "lon": -0.377356,
        "name": [
          {
            "language": "fr",
            "text": "SCHOFFENGRUND"
          }
        ],
        "rental_uris": {
          "web": "https://tanlib.ecovelo.mobi/#/station/stn_XBG6q3u7Mx5BQ79NcE9jcm"
        },
        "station_id": "stn_XBG6q3u7Mx5BQ79NcE9jcm"
      },
      {
        "capacity": 20,
        "is_valet_station": false,
        "is_virtual_station": false,
        "lat": 46.331034,
        "lon": -0.468678,
        "name": [
          {
            "language": "fr",
            "text": "JEAN MACE"
          }
        ],
        "rental_uris": {
          "web": "https://tanlib.ecovelo.mobi/#/station/stn_EQXDtYpkz3ucGwCKvVvALD"
        },
        "station_id": "stn_EQXDtYpkz3ucGwCKvVvALD"
      },
      {
        "capacity": 20,
        "is_valet_station": false,
        "is_virtual_station": false,
        "lat": 46.3271,
        "lon": -0.48954,
        "name": [
          {
            "language": "fr",
            "text": "POLE UNIVERSITAIRE"
          }
        ],
        "rental_uris": {
          "web": "https://tanlib.ecovelo.mobi/#/station/stn_T5kUyJYesgMLsrq8TwQd87"
        },
        "station_id": "stn_T5kUyJYesgMLsrq8TwQd87"
      },
      {
        "capacity": 8,
        "is_valet_station": false,
        "is_virtual_station": false,
        "lat": 46.31902,
        "lon": -0.515462,
        "name": [
          {
            "language": "fr",
            "text": "LEVEE DE SEVREAU"
          }
        ],
        "rental_uris": {
          "web": "https://tanlib.ecovelo.mobi/#/station/stn_o6uCvEj35ViMrRUUfQBH8G"
        },
        "station_id": "stn_o6uCvEj35ViMrRUUfQBH8G"
      },
      {
        "capacity": 14,
        "is_valet_station": false,
        "is_virtual_station": false,
        "lat": 46.31707,
        "lon": -0.457462,
        "name": [
          {
            "language": "fr",
            "text": "HOPITAL"
          }
        ],
        "rental_uris": {
          "web": "https://tanlib.ecovelo.mobi/#/station/stn_abbH9hFt4EVnNPVzd7RnGi"
        },
        "station_id": "stn_abbH9hFt4EVnNPVzd7RnGi"
      },
      {
        "capacity": 14,
        "is_valet_station": false,
        "is_virtual_station": false,
        "lat": 46.313036,
        "lon": -0.465719,
        "name": [
          {
            "language": "fr",
            "text": "SAINT-FLORENT"
          }
        ],
        "rental_uris": {
          "web": "https://tanlib.ecovelo.mobi/#/station/stn_QxkAkwMsAdV7BfgWtcYCxC"
        },
        "station_id": "stn_QxkAkwMsAdV7BfgWtcYCxC"
      },
      {
        "capacity": 14,
        "is_valet_station": false,
        "is_virtual_station": false,
        "lat": 46.327992,
        "lon": -0.446941,
        "name": [
          {
            "language": "fr",
            "text": "SAINT-ANDRE"
          }
        ],
        "rental_uris": {
          "web": "https://tanlib.ecovelo.mobi/#/station/stn_SNZtYxcRJYnTAMaZ6zegBF"
        },
        "station_id": "stn_SNZtYxcRJYnTAMaZ6zegBF"
      },
      {
        "capacity": 20,
        "is_valet_station": false,
        "is_virtual_station": false,
        "lat": 46.319201,
        "lon": -0.454966,
        "name": [
          {
            "language": "fr",
            "text": "GARE"
          }
        ],
        "rental_uris": {
          "web": "https://tanlib.ecovelo.mobi/#/station/stn_Tq35fPXVfP5jtZNEszqawD"
        },
        "station_id": "stn_Tq35fPXVfP5jtZNEszqawD"
      },
      {
        "capacity": 16,
        "is_valet_station": false,
        "is_virtual_station": false,
        "lat": 46.34737,
        "lon": -0.48279,
        "name": [
          {
            "language": "fr",
            "text": "TELOUZE"
          }
        ],
        "rental_uris": {
          "web": "https://tanlib.ecovelo.mobi/#/station/stn_m3wjNCDXaZahG3e4vfXbYj"
        },
        "station_id": "stn_m3wjNCDXaZahG3e4vfXbYj"
      },
      {
        "capacity": 20,
        "is_valet_station": false,
        "is_virtual_station": false,
        "lat": 46.314954,
        "lon": -0.442809,
        "name": [
          {
            "language": "fr",
            "text": "PAUL GUERIN"
          }
        ],
        "rental_uris": {
          "web": "https://tanlib.ecovelo.mobi/#/station/stn_kZRhjj8HyvAuMKD8Bp6x4o"
        },
        "station_id": "stn_kZRhjj8HyvAuMKD8Bp6x4o"
      },
      {
        "capacity": 20,
        "is_valet_station": false,
        "is_virtual_station": false,
        "lat": 46.32612,
        "lon": -0.46479,
        "name": [
          {
            "language": "fr",
            "text": "MOULIN DU MILIEU"
          }
        ],
        "rental_uris": {
          "web": "https://tanlib.ecovelo.mobi/#/station/stn_2GyvhXK6vJCBv3RvbtJ7CJ"
        },
        "station_id": "stn_2GyvhXK6vJCBv3RvbtJ7CJ"
      },
      {
        "capacity": 8,
        "is_valet_station": false,
        "is_virtual_station": false,
        "lat": 46.339332,
        "lon": -0.447516,
        "name": [
          {
            "language": "fr",
            "text": "HERSE"
          }
        ],
        "rental_uris": {
          "web": "https://tanlib.ecovelo.mobi/#/station/stn_mGmCTqUAa8kgt74rbr2hZ2"
        },
        "station_id": "stn_mGmCTqUAa8kgt74rbr2hZ2"
      },
      {
        "capacity": 14,
        "is_valet_station": false,
        "is_virtual_station": false,
        "lat": 46.324748,
        "lon": -0.469885,
        "name": [
          {
            "language": "fr",
            "text": "PORT BOINOT"
          }
        ],
        "rental_uris": {
          "web": "https://tanlib.ecovelo.mobi/#/station/stn_5gyn9jHfJdgvb63EFndSwB"
        },
        "station_id": "stn_5gyn9jHfJdgvb63EFndSwB"
      },
      {
        "capacity": 8,
        "is_valet_station": false,
        "is_virtual_station": false,
        "lat": 46.36181,
        "lon": -0.371779,
        "name": [
          {
            "language": "fr",
            "text": "PARPIN"
          }
        ],
        "rental_uris": {
          "web": "https://tanlib.ecovelo.mobi/#/station/stn_nx3XqdrvFM5TimptAC8Ffh"
        },
        "station_id": "stn_nx3XqdrvFM5TimptAC8Ffh"
      },
      {
        "capacity": 8,
        "is_valet_station": false,
        "is_virtual_station": false,
        "lat": 46.345834,
        "lon": -0.398431,
        "name": [
          {
            "language": "fr",
            "text": "CHABAN"
          }
        ],
        "rental_uris": {
          "web": "https://tanlib.ecovelo.mobi/#/station/stn_6Ajkuo2tibvKH2Q74fjWSp"
        },
        "station_id": "stn_6Ajkuo2tibvKH2Q74fjWSp"
      },
      {
        "capacity": 16,
        "is_valet_station": false,
        "is_virtual_station": false,
        "lat": 46.32848,
        "lon": -0.43763,
        "name": [
          {
            "language": "fr",
            "text": "SOUCHECO"
          }
        ],
        "rental_uris": {
          "web": "https://tanlib.ecovelo.mobi/#/station/stn_WBXMnT2Lvog3mn8tBy6MhD"
        },
        "station_id": "stn_WBXMnT2Lvog3mn8tBy6MhD"
      },
      {
        "capacity": 22,
        "is_valet_station": false,
        "is_virtual_station": false,
        "lat": 46.31737,
        "lon": -0.48299,
        "name": [
          {
            "language": "fr",
            "text": "POLE ATLANTIQUE"
          }
        ],
        "rental_uris": {
          "web": "https://tanlib.ecovelo.mobi/#/station/stn_nQ8agtNMbRPU4bVS422YmQ"
        },
        "station_id": "stn_nQ8agtNMbRPU4bVS422YmQ"
      },
      {
        "capacity": 8,
        "is_valet_station": false,
        "is_virtual_station": false,
        "lat": 46.315721,
        "lon": -0.432332,
        "name": [
          {
            "language": "fr",
            "text": "POINCARE"
          }
        ],
        "rental_uris": {
          "web": "https://tanlib.ecovelo.mobi/#/station/stn_LX7aFfyas3T3CiXnqTvmXk"
        },
        "station_id": "stn_LX7aFfyas3T3CiXnqTvmXk"
      },
      {
        "capacity": 20,
        "is_valet_station": false,
        "is_virtual_station": false,
        "lat": 46.3157,
        "lon": -0.5021,
        "name": [
          {
            "language": "fr",
            "text": "ESPERANCE"
          }
        ],
        "rental_uris": {
          "web": "https://tanlib.ecovelo.mobi/#/station/stn_HyqcNyGkV8DtBhcKpcZRtL"
        },
        "station_id": "stn_HyqcNyGkV8DtBhcKpcZRtL"
      },
      {
        "capacity": 8,
        "is_valet_station": false,
        "is_virtual_station": false,
        "lat": 46.301277,
        "lon": -0.425747,
        "name": [
          {
            "language": "fr",
            "text": "PISSARDANT"
          }
        ],
        "rental_uris": {
          "web": "https://tanlib.ecovelo.mobi/#/station/stn_XaDf3sruv5a8d4LpJJvQsh"
        },
        "station_id": "stn_XaDf3sruv5a8d4LpJJvQsh"
      },
      {
        "capacity": 20,
        "is_valet_station": false,
        "is_virtual_station": false,
        "lat": 46.34162,
        "lon": -0.48859,
        "name": [
          {
            "language": "fr",
            "text": "ESPACE OUEST"
          }
        ],
        "rental_uris": {
          "web": "https://tanlib.ecovelo.mobi/#/station/stn_QdzpJeFy79kjyX6KxBJngs"
        },
        "station_id": "stn_QdzpJeFy79kjyX6KxBJngs"
      },
      {
        "capacity": 10,
        "is_valet_station": false,
        "is_virtual_station": false,
        "lat": 46.319316,
        "lon": -0.449577,
        "name": [
          {
            "language": "fr",
            "text": "PUYRAJOUX"
          }
        ],
        "rental_uris": {
          "web": "https://tanlib.ecovelo.mobi/#/station/stn_bU59wNeZKJJU6GwwDYZ546"
        },
        "station_id": "stn_bU59wNeZKJJU6GwwDYZ546"
      },
      {
        "capacity": 12,
        "is_valet_station": false,
        "is_virtual_station": false,
        "lat": 46.333879,
        "lon": -0.471888,
        "name": [
          {
            "language": "fr",
            "text": "VILLON"
          }
        ],
        "rental_uris": {
          "web": "https://tanlib.ecovelo.mobi/#/station/stn_nnKeL8E6ua8mrry5jMqtxb"
        },
        "station_id": "stn_nnKeL8E6ua8mrry5jMqtxb"
      },
      {
        "capacity": 20,
        "is_valet_station": false,
        "is_virtual_station": false,
        "lat": 46.33604,
        "lon": -0.42496,
        "name": [
          {
            "language": "fr",
            "text": "MAISONS ROUGES"
          }
        ],
        "rental_uris": {
          "web": "https://tanlib.ecovelo.mobi/#/station/stn_4wKVURjUnEkFSxybrHkrib"
        },
        "station_id": "stn_4wKVURjUnEkFSxybrHkrib"
      },
      {
        "capacity": 16,
        "is_valet_station": false,
        "is_virtual_station": false,
        "lat": 46.3099,
        "lon": -0.45216,
        "name": [
          {
            "language": "fr",
            "text": "PLAINE"
          }
        ],
        "rental_uris": {
          "web": "https://tanlib.ecovelo.mobi/#/station/stn_kvrfXL4aokpeGuCVx2KV5m"
        },
        "station_id": "stn_kvrfXL4aokpeGuCVx2KV5m"
      },
      {
        "capacity": 16,
        "is_valet_station": false,
        "is_virtual_station": false,
        "lat": 46.30795,
        "lon": -0.44114,
        "name": [
          {
            "language": "fr",
            "text": "NERVAL"
          }
        ],
        "rental_uris": {
          "web": "https://tanlib.ecovelo.mobi/#/station/stn_KJdqpVYz8jYW3ajEJc5eNj"
        },
        "station_id": "stn_KJdqpVYz8jYW3ajEJc5eNj"
      },
      {
        "capacity": 10,
        "is_valet_station": false,
        "is_virtual_station": false,
        "lat": 46.311515,
        "lon": -0.477473,
        "name": [
          {
            "language": "fr",
            "text": "TARDY"
          }
        ],
        "rental_uris": {
          "web": "https://tanlib.ecovelo.mobi/#/station/stn_imNrJ3ZbM6zU3uSgFzqvwU"
        },
        "station_id": "stn_imNrJ3ZbM6zU3uSgFzqvwU"
      },
      {
        "capacity": 7,
        "is_valet_station": false,
        "is_virtual_station": false,
        "lat": 46.321101,
        "lon": -0.45424,
        "name": [
          {
            "language": "fr",
            "text": "MUSEE"
          }
        ],
        "rental_uris": {
          "web": "https://tanlib.ecovelo.mobi/#/station/stn_LtDN7o64vFVMe5uhrnDj9i"
        },
        "station_id": "stn_LtDN7o64vFVMe5uhrnDj9i"
      },
      {
        "capacity": 8,
        "is_valet_station": false,
        "is_virtual_station": false,
        "lat": 46.361859,
        "lon": -0.362404,
        "name": [
          {
            "language": "fr",
            "text": "BATELIERS"
          }
        ],
        "rental_uris": {
          "web": "https://tanlib.ecovelo.mobi/#/station/stn_YwVEYCP4sicZFqeNnavrf6"
        },
        "station_id": "stn_YwVEYCP4sicZFqeNnavrf6"
      },
      {
        "capacity": 14,
        "is_valet_station": false,
        "is_virtual_station": false,
        "lat": 46.324649,
        "lon": -0.479169,
        "name": [
          {
            "language": "fr",
            "text": "GAVACHERIE"
          }
        ],
        "rental_uris": {
          "web": "https://tanlib.ecovelo.mobi/#/station/stn_BBDhELMBP8SuhszKKReQYF"
        },
        "station_id": "stn_BBDhELMBP8SuhszKKReQYF"
      },
      {
        "capacity": 15,
        "is_valet_station": false,
        "is_virtual_station": false,
        "lat": 46.33473,
        "lon": -0.456768,
        "name": [
          {
            "language": "fr",
            "text": "COUBERTIN"
          }
        ],
        "rental_uris": {
          "web": "https://tanlib.ecovelo.mobi/#/station/stn_EKJypKNYDkzo36dyJCN8VZ"
        },
        "station_id": "stn_EKJypKNYDkzo36dyJCN8VZ"
      },
      {
        "capacity": 10,
        "is_valet_station": false,
        "is_virtual_station": false,
        "lat": 46.342897,
        "lon": -0.397184,
        "name": [
          {
            "language": "fr",
            "text": "PREVERT"
          }
        ],
        "rental_uris": {
          "web": "https://tanlib.ecovelo.mobi/#/station/stn_3U9PmyTspay9j8zejfY3yK"
        },
        "station_id": "stn_3U9PmyTspay9j8zejfY3yK"
      },
      {
        "capacity": 8,
        "is_valet_station": false,
        "is_virtual_station": false,
        "lat": 46.343259,
        "lon": -0.456552,
        "name": [
          {
            "language": "fr",
            "text": "CHOLETTE"
          }
        ],
        "rental_uris": {
          "web": "https://tanlib.ecovelo.mobi/#/station/stn_XHkp4d9rr8bMcQG7ZeGhB5"
        },
        "station_id": "stn_XHkp4d9rr8bMcQG7ZeGhB5"
      },
      {
        "capacity": 8,
        "is_valet_station": false,
        "is_virtual_station": false,
        "lat": 46.358638,
        "lon": -0.383986,
        "name": [
          {
            "language": "fr",
            "text": "CENTRE-AQUATIQUE"
          }
        ],
        "rental_uris": {
          "web": "https://tanlib.ecovelo.mobi/#/station/stn_CKJSwr8NMq6rkRALPQT9kU"
        },
        "station_id": "stn_CKJSwr8NMq6rkRALPQT9kU"
      },
      {
        "capacity": 14,
        "is_valet_station": false,
        "is_virtual_station": false,
        "lat": 46.32398,
        "lon": -0.46426,
        "name": [
          {
            "language": "fr",
            "text": "HOTEL DE VILLE"
          }
        ],
        "rental_uris": {
          "web": "https://tanlib.ecovelo.mobi/#/station/stn_d7hQ9mvcr5MQEiCHfjijbV"
        },
        "station_id": "stn_d7hQ9mvcr5MQEiCHfjijbV"
      },
      {
        "capacity": 22,
        "is_valet_station": false,
        "is_virtual_station": false,
        "lat": 46.30685,
        "lon": -0.4855,
        "name": [
          {
            "language": "fr",
            "text": "PIED DE FOND"
          }
        ],
        "rental_uris": {
          "web": "https://tanlib.ecovelo.mobi/#/station/stn_jZyZA2W2FLjQGCsdWgLRME"
        },
        "station_id": "stn_jZyZA2W2FLjQGCsdWgLRME"
      },
      {
        "capacity": 14,
        "is_valet_station": false,
        "is_virtual_station": false,
        "lat": 46.330031,
        "lon": -0.459724,
        "name": [
          {
            "language": "fr",
            "text": "DENFERT ROCHEREAU"
          }
        ],
        "rental_uris": {
          "web": "https://tanlib.ecovelo.mobi/#/station/stn_8zumLWVB67cFhznaPaAdW2"
        },
        "station_id": "stn_8zumLWVB67cFhznaPaAdW2"
      },
      {
        "capacity": 16,
        "is_valet_station": false,
        "is_virtual_station": false,
        "lat": 46.32031,
        "lon": -0.44178,
        "name": [
          {
            "language": "fr",
            "text": "CHAMPCLAIROT"
          }
        ],
        "rental_uris": {
          "web": "https://tanlib.ecovelo.mobi/#/station/stn_CQVc8SGq3yZ9rZwZhae8vW"
        },
        "station_id": "stn_CQVc8SGq3yZ9rZwZhae8vW"
      },
      {
        "capacity": 14,
        "is_valet_station": false,
        "is_virtual_station": false,
        "lat": 46.317714,
        "lon": -0.471019,
        "name": [
          {
            "language": "fr",
            "text": "LEO LAGRANGE"
          }
        ],
        "rental_uris": {
          "web": "https://tanlib.ecovelo.mobi/#/station/stn_8Cqw6rWJeZsGEtJLQzxxB3"
        },
        "station_id": "stn_8Cqw6rWJeZsGEtJLQzxxB3"
      },
      {
        "capacity": 8,
        "is_valet_station": false,
        "is_virtual_station": false,
        "lat": 46.285751,
        "lon": -0.416139,
        "name": [
          {
            "language": "fr",
            "text": "AIFFRES MAIRIE "
          }
        ],
        "rental_uris": {
          "web": "https://tanlib.ecovelo.mobi/#/station/stn_LAhDuv6YQGJWuqauoKMFXw"
        },
        "station_id": "stn_LAhDuv6YQGJWuqauoKMFXw"
      },
      {
        "capacity": 8,
        "is_valet_station": false,
        "is_virtual_station": false,
        "lat": 46.325974,
        "lon": -0.511707,
        "name": [
          {
            "language": "fr",
            "text": "SAINT-LIGUAIRE"
          }
        ],
        "rental_uris": {
          "web": "https://tanlib.ecovelo.mobi/#/station/stn_Zc6bm9W9rWm9to2wrektQr"
        },
        "station_id": "stn_Zc6bm9W9rWm9to2wrektQr"
      },
      {
        "capacity": 8,
        "is_valet_station": false,
        "is_virtual_station": false,
        "lat": 46.355556,
        "lon": -0.381368,
        "name": [
          {
            "language": "fr",
            "text": "ARANDELLES"
          }
        ],
        "rental_uris": {
          "web": "https://tanlib.ecovelo.mobi/#/station/stn_XkLgRrQCydmExdfQkLHnzs"
        },
        "station_id": "stn_XkLgRrQCydmExdfQkLHnzs"
      },
      {
        "capacity": 8,
        "is_valet_station": false,
        "is_virtual_station": false,
        "lat": 46.365549,
        "lon": -0.376861,
        "name": [
          {
            "language": "fr",
            "text": "CHÃ‚TEAU DRIGUET"
          }
        ],
        "rental_uris": {
          "web": "https://tanlib.ecovelo.mobi/#/station/stn_CA3hfUuwKAjvoTQKDWMT4a"
        },
        "station_id": "stn_CA3hfUuwKAjvoTQKDWMT4a"
      },
      {
        "capacity": 16,
        "is_valet_station": false,
        "is_virtual_station": false,
        "lat": 46.34825,
        "lon": -0.47298,
        "name": [
          {
            "language": "fr",
            "text": "SAINTE-PEZENNE"
          }
        ],
        "rental_uris": {
          "web": "https://tanlib.ecovelo.mobi/#/station/stn_m7F4oM2pufhnn3QmHj4a3c"
        },
        "station_id": "stn_m7F4oM2pufhnn3QmHj4a3c"
      },
      {
        "capacity": 20,
        "is_valet_station": false,
        "is_virtual_station": false,
        "lat": 46.33226,
        "lon": -0.48568,
        "name": [
          {
            "language": "fr",
            "text": "PYTHAGORE"
          }
        ],
        "rental_uris": {
          "web": "https://tanlib.ecovelo.mobi/#/station/stn_6kaxLoFL4exBrdRUTEywE8"
        },
        "station_id": "stn_6kaxLoFL4exBrdRUTEywE8"
      },
      {
        "capacity": 10,
        "is_valet_station": false,
        "is_virtual_station": false,
        "lat": 46.30977,
        "lon": -0.481673,
        "name": [
          {
            "language": "fr",
            "text": "JACQUES VANDIER"
          }
        ],
        "rental_uris": {
          "web": "https://tanlib.ecovelo.mobi/#/station/stn_GRZuzMhUYX6yDbT8wK8YKQ"
        },
        "station_id": "stn_GRZuzMhUYX6yDbT8wK8YKQ"
      },
      {
        "capacity": 16,
        "is_valet_station": false,
        "is_virtual_station": false,
        "lat": 46.3404,
        "lon": -0.43925,
        "name": [
          {
            "language": "fr",
            "text": "CAILLARD"
          }
        ],
        "rental_uris": {
          "web": "https://tanlib.ecovelo.mobi/#/station/stn_bj5jPXnNYJa273rAUB3Quq"
        },
        "station_id": "stn_bj5jPXnNYJa273rAUB3Quq"
      },
      {
        "capacity": 10,
        "is_valet_station": false,
        "is_virtual_station": false,
        "lat": 46.308155,
        "lon": -0.470274,
        "name": [
          {
            "language": "fr",
            "text": "THOMASSERIE"
          }
        ],
        "rental_uris": {
          "web": "https://tanlib.ecovelo.mobi/#/station/stn_hoBFVPHsmrznMaN4FupqGR"
        },
        "station_id": "stn_hoBFVPHsmrznMaN4FupqGR"
      },
      {
        "capacity": 40,
        "is_valet_station": false,
        "is_virtual_station": false,
        "lat": 46.32256,
        "lon": -0.45941,
        "name": [
          {
            "language": "fr",
            "text": "BRECHE"
          }
        ],
        "rental_uris": {
          "web": "https://tanlib.ecovelo.mobi/#/station/stn_N6cBmaNTDFo3BwzKbsCzLd"
        },
        "station_id": "stn_N6cBmaNTDFo3BwzKbsCzLd"
      },
      {
        "capacity": 20,
        "is_valet_station": false,
        "is_virtual_station": false,
        "lat": 46.3255,
        "lon": -0.4489,
        "name": [
          {
            "language": "fr",
            "text": "BELLUNE"
          }
        ],
        "rental_uris": {
          "web": "https://tanlib.ecovelo.mobi/#/station/stn_cYaSokcksVY2nh7TJjYY46"
        },
        "station_id": "stn_cYaSokcksVY2nh7TJjYY46"
      }
    ]
  },
  "last_updated": "2026-02-22T09:42:03+01:00",
  "ttl": 0,
  "version": "3.0"
}