{
  "last_updated": 1771749860,
  "ttl": 21600,
  "version": "2.3",
  "data": {
    "stations": [
      {
        "station_id": "fec4fc18-8190-486d-9777-ab58aa5f7d22",
        "name": "GRE221",
        "lat": 45.18326,
        "lon": 5.72645,
        "is_virtual_station": true,
        "capacity": 12
      },
      {
        "station_id": "0077f4c2-3094-4ed3-9bd4-50715eb88cbf",
        "name": "GRE267",
        "lat": 45.17566,
        "lon": 5.73752,
        "is_virtual_station": true,
        "capacity": 12
      },
      {
        "station_id": "0f5dc305-4c2b-42a9-a106-99262949b14f",
        "name": "GRE050",
        "lat": 45.171146,
        "lon": 5.741207,
        "is_virtual_station": true,
        "capacity": 12
      },
      {
        "station_id": "3a106048-7a3a-44cb-89c2-22b5e17390a8",
        "name": "GRE047",
        "lat": 45.181878,
        "lon": 5.72416,
        "is_virtual_station": true,
        "capacity": 12
      },
      {
        "station_id": "b298a019-cd80-4a5a-b83d-034cdfbf5d58",
        "name": "FON031",
        "lat": 45.188477,
        "lon": 5.684712,
        "is_virtual_station": true,
        "capacity": 8
      },
      {
        "station_id": "dd6d7430-5033-4e97-96f2-e4b4fd3ac147",
        "name": "SEG013",
        "lat": 45.219828,
        "lon": 5.678571,
        "is_virtual_station": true,
        "capacity": 8
      },
      {
        "station_id": "8d3fc758-1c74-4158-afd7-2be6be3a3fe4",
        "name": "GRE250",
        "lat": 45.16905,
        "lon": 5.73325,
        "is_virtual_station": true,
        "capacity": 12
      },
      {
        "station_id": "dd74324c-d7dc-4b85-8b4e-eda01fab9a21",
        "name": "ECH019",
        "lat": 45.148912,
        "lon": 5.721142,
        "is_virtual_station": true,
        "capacity": 8
      },
      {
        "station_id": "52d1b29b-68e1-4a0d-ac73-b6c612596a81",
        "name": "SMH009",
        "lat": 45.166977,
        "lon": 5.746069,
        "is_virtual_station": true,
        "capacity": 8
      },
      {
        "station_id": "b58b0148-f5f2-4f03-9553-9f62b9ee1349",
        "name": "DUA018",
        "lat": 45.19193,
        "lon": 5.77379,
        "is_virtual_station": true,
        "capacity": 8
      },
      {
        "station_id": "a964b610-162d-47ed-b0ba-4d3676c8e0ec",
        "name": "GRE019",
        "lat": 45.177182,
        "lon": 5.709731,
        "is_virtual_station": true,
        "capacity": 12
      },
      {
        "station_id": "02758e9e-cc71-4ef0-999a-1aaa7cc4f914",
        "name": "LAT014",
        "lat": 45.203497,
        "lon": 5.750957,
        "is_virtual_station": true,
        "capacity": 8
      },
      {
        "station_id": "01621743-3319-40d3-a026-b5885ff17d16",
        "name": "GRE176",
        "lat": 45.19338,
        "lon": 5.71624,
        "is_virtual_station": true,
        "capacity": 12
      },
      {
        "station_id": "74cedacb-02f4-434e-bf98-ce26efe8cfac",
        "name": "GRE051",
        "lat": 45.167101,
        "lon": 5.739515,
        "is_virtual_station": true,
        "capacity": 12
      },
      {
        "station_id": "0766a453-7f60-4bf2-afee-5f3262b14ca9",
        "name": "GRE031",
        "lat": 45.169616,
        "lon": 5.741746,
        "is_virtual_station": true,
        "capacity": 12
      },
      {
        "station_id": "b724d996-85c8-49dc-aa14-92948e1765ce",
        "name": "MON005",
        "lat": 45.213912,
        "lon": 5.809958,
        "is_virtual_station": true,
        "capacity": 8
      },
      {
        "station_id": "e792f10e-39a5-49ad-b567-c9bb5936f3e7",
        "name": "GRE244",
        "lat": 45.180718,
        "lon": 5.731859,
        "is_virtual_station": true,
        "capacity": 12
      },
      {
        "station_id": "436139a4-51b1-411d-b657-441b8e4f09b0",
        "name": "DUA010",
        "lat": 45.190793,
        "lon": 5.763382,
        "is_virtual_station": true,
        "capacity": 8
      },
      {
        "station_id": "a5b60972-6f4a-4789-878f-15a680362124",
        "name": "ECH043",
        "lat": 45.14675,
        "lon": 5.732118,
        "is_virtual_station": true,
        "capacity": 8
      },
      {
        "station_id": "ffd5f612-2230-4bb8-8940-84b7b04d1b68",
        "name": "EYB003",
        "lat": 45.15322,
        "lon": 5.74859,
        "is_virtual_station": true,
        "capacity": 8
      },
      {
        "station_id": "ffc329c6-9f1c-4f8f-a595-b9733a514a6e",
        "name": "MEY034",
        "lat": 45.21103,
        "lon": 5.799655,
        "is_virtual_station": true,
        "capacity": 8
      },
      {
        "station_id": "0765bde4-c131-4a0b-8727-6170634267e8",
        "name": "SEG004",
        "lat": 45.235845,
        "lon": 5.675372,
        "is_virtual_station": true,
        "capacity": 8
      },
      {
        "station_id": "127a7f01-0c0d-402c-afd7-32a3e3de55e0",
        "name": "GRE070",
        "lat": 45.189071,
        "lon": 5.737155,
        "is_virtual_station": true,
        "capacity": 12
      },
      {
        "station_id": "6728e076-43fe-4f92-8637-be6b2fc32845",
        "name": "SMH046",
        "lat": 45.171103,
        "lon": 5.781304,
        "is_virtual_station": true,
        "capacity": 8
      },
      {
        "station_id": "d4d44e72-bfe7-451b-9551-b02c702e8b69",
        "name": "ECH023",
        "lat": 45.13953,
        "lon": 5.72119,
        "is_virtual_station": true,
        "capacity": 8
      },
      {
        "station_id": "7a1836cf-331e-46de-900f-cf3076fa45c6",
        "name": "SAS004",
        "lat": 45.213488,
        "lon": 5.668904,
        "is_virtual_station": true,
        "capacity": 8
      },
      {
        "station_id": "e689253b-2218-4c9a-94fb-ed713247d8ac",
        "name": "GRE104",
        "lat": 45.185294,
        "lon": 5.716739,
        "is_virtual_station": true,
        "capacity": 12
      },
      {
        "station_id": "6bd3cb32-40cc-426a-9d3f-ad8f7ef6da02",
        "name": "GRE128",
        "lat": 45.16146,
        "lon": 5.70483,
        "is_virtual_station": true,
        "capacity": 12
      },
      {
        "station_id": "1fef8ecc-6e5e-4297-ad74-4e5cd0b51159",
        "name": "MEY030",
        "lat": 45.208805,
        "lon": 5.796255,
        "is_virtual_station": true,
        "capacity": 8
      },
      {
        "station_id": "e0d8e343-75ea-4aa6-8d8c-f7a2d14c0e01",
        "name": "GRE021",
        "lat": 45.182677,
        "lon": 5.710515,
        "is_virtual_station": true,
        "capacity": 12
      },
      {
        "station_id": "766684bf-05d0-4e6b-8218-d7dc1aa2aac5",
        "name": "FON009",
        "lat": 45.191173,
        "lon": 5.695788,
        "is_virtual_station": true,
        "capacity": 8
      },
      {
        "station_id": "a2d03fb7-81aa-4c1a-af06-482949947eb1",
        "name": "SEG019",
        "lat": 45.23724,
        "lon": 5.66054,
        "is_virtual_station": true,
        "capacity": 8
      },
      {
        "station_id": "c64be9a5-9889-4293-a77d-db9b358ff136",
        "name": "GRE022",
        "lat": 45.183255,
        "lon": 5.719188,
        "is_virtual_station": true,
        "capacity": 12
      },
      {
        "station_id": "9b965aef-f82c-4dd1-99bd-32b19dcc3247",
        "name": "DUA021",
        "lat": 45.192687,
        "lon": 5.770696,
        "is_virtual_station": true,
        "capacity": 8
      },
      {
        "station_id": "fa35fd33-9196-41af-98e0-e45175456837",
        "name": "COR003",
        "lat": 45.214573,
        "lon": 5.769219,
        "is_virtual_station": true,
        "capacity": 8
      },
      {
        "station_id": "224147f1-e2b2-4d2a-8abb-6ae64e5a5d78",
        "name": "SMV007",
        "lat": 45.210098,
        "lon": 5.702876,
        "is_virtual_station": true,
        "capacity": 8
      },
      {
        "station_id": "58ec088d-4477-4520-b4d4-88e8d37ba00c",
        "name": "SAS012",
        "lat": 45.220884,
        "lon": 5.65989,
        "is_virtual_station": true,
        "capacity": 8
      },
      {
        "station_id": "3f290c29-3bef-4f67-8e32-d4f676337769",
        "name": "DUA022",
        "lat": 45.19404,
        "lon": 5.76898,
        "is_virtual_station": true,
        "capacity": 8
      },
      {
        "station_id": "0d3ff0cc-9b58-4045-9e48-06e6d280bf89",
        "name": "SMH010",
        "lat": 45.165191,
        "lon": 5.748599,
        "is_virtual_station": true,
        "capacity": 8
      },
      {
        "station_id": "2259556a-7969-4e55-97ec-9c7f366d19f6",
        "name": "SEP009",
        "lat": 45.172454,
        "lon": 5.699196,
        "is_virtual_station": true,
        "capacity": 8
      },
      {
        "station_id": "e34663b5-7d4d-40ae-a66a-09727ccb82c0",
        "name": "MON002",
        "lat": 45.22346,
        "lon": 5.80348,
        "is_virtual_station": true,
        "capacity": 8
      },
      {
        "station_id": "d94f1e41-c8b0-4ea3-a377-2b560fb75936",
        "name": "PON014",
        "lat": 45.139581,
        "lon": 5.700762,
        "is_virtual_station": true,
        "capacity": 8
      },
      {
        "station_id": "2e5ff8f6-7c9c-4d40-83d6-3a9333ccfb99",
        "name": "GRE274",
        "lat": 45.17294,
        "lon": 5.73887,
        "is_virtual_station": true,
        "capacity": 12
      },
      {
        "station_id": "9daf4e5b-7f31-4397-9ced-da809e60b14b",
        "name": "SEY009",
        "lat": 45.165745,
        "lon": 5.690436,
        "is_virtual_station": true,
        "capacity": 8
      },
      {
        "station_id": "344101f3-2833-43bc-bf3d-c77e4671cca0",
        "name": "GRE144",
        "lat": 45.18992,
        "lon": 5.70881,
        "is_virtual_station": true,
        "capacity": 12
      },
      {
        "station_id": "308240be-c2d6-43eb-b467-d6f2ca03003e",
        "name": "GRE017",
        "lat": 45.180657,
        "lon": 5.737958,
        "is_virtual_station": true,
        "capacity": 12
      },
      {
        "station_id": "ecbadfd3-e16a-47e7-be38-c2f400c77c01",
        "name": "GRE307",
        "lat": 45.194986,
        "lon": 5.726351,
        "is_virtual_station": true,
        "capacity": 12
      },
      {
        "station_id": "fc896fab-1d66-4910-adf7-7ab416049804",
        "name": "GRE167",
        "lat": 45.19173,
        "lon": 5.71321,
        "is_virtual_station": true,
        "capacity": 12
      },
      {
        "station_id": "b971c954-0b57-497d-8b89-e93b51084985",
        "name": "SEG018",
        "lat": 45.23286,
        "lon": 5.6922,
        "is_virtual_station": true,
        "capacity": 8
      },
      {
        "station_id": "263e0c0f-b833-462d-b6b4-de719084c18f",
        "name": "GRE010",
        "lat": 45.173737,
        "lon": 5.742017,
        "is_virtual_station": true,
        "capacity": 12
      },
      {
        "station_id": "6c05e130-24ab-4e51-822d-bd63df2d4357",
        "name": "LAT017",
        "lat": 45.21783,
        "lon": 5.74928,
        "is_virtual_station": true,
        "capacity": 8
      },
      {
        "station_id": "1ca76c49-fbe9-4aac-a0f7-dacb0425447b",
        "name": "FON015",
        "lat": 45.199639,
        "lon": 5.683805,
        "is_virtual_station": true,
        "capacity": 8
      },
      {
        "station_id": "2df997ab-83ae-4fe7-92c3-8bf3ffb5ba78",
        "name": "GRE191",
        "lat": 45.19062,
        "lon": 5.72023,
        "is_virtual_station": true,
        "capacity": 12
      },
      {
        "station_id": "48d83162-006d-43d3-ad3c-627da898f818",
        "name": "EYB002",
        "lat": 45.14766,
        "lon": 5.75118,
        "is_virtual_station": true,
        "capacity": 8
      },
      {
        "station_id": "2ca60f1c-d88f-49a4-97f5-fe5508ed1b2d",
        "name": "SEY014",
        "lat": 45.153444,
        "lon": 5.679311,
        "is_virtual_station": true,
        "capacity": 8
      },
      {
        "station_id": "3a31a891-7f59-4139-a891-c3364483e906",
        "name": "GRE309",
        "lat": 45.195776,
        "lon": 5.726677,
        "is_virtual_station": true,
        "capacity": 12
      },
      {
        "station_id": "a730772d-3fdf-42b2-8ebd-8fbb927d5b9a",
        "name": "GRE283",
        "lat": 45.16728,
        "lon": 5.7419,
        "is_virtual_station": true,
        "capacity": 12
      },
      {
        "station_id": "51ebb390-8352-4ecf-b283-a46136957fc8",
        "name": "GRE255",
        "lat": 45.17428,
        "lon": 5.73436,
        "is_virtual_station": true,
        "capacity": 12
      },
      {
        "station_id": "77422bd7-43b3-48ec-9dbb-a71b5887fe51",
        "name": "COR006",
        "lat": 45.21344,
        "lon": 5.764265,
        "is_virtual_station": true,
        "capacity": 8
      },
      {
        "station_id": "993a2ff2-ac9c-4712-8ef9-f420aad80fe9",
        "name": "MEY015",
        "lat": 45.205867,
        "lon": 5.780754,
        "is_virtual_station": true,
        "capacity": 8
      },
      {
        "station_id": "72f8b27c-5618-4d08-b5a9-cc40dd1c3249",
        "name": "GRE253",
        "lat": 45.19106,
        "lon": 5.73408,
        "is_virtual_station": true,
        "capacity": 12
      },
      {
        "station_id": "5602464b-b4e5-4428-8b4d-aba1adb81c14",
        "name": "GRE228",
        "lat": 45.16539,
        "lon": 5.72847,
        "is_virtual_station": true,
        "capacity": 12
      },
      {
        "station_id": "25f3395d-d736-4406-a35d-8ad471444329",
        "name": "DUA008",
        "lat": 45.191884,
        "lon": 5.777479,
        "is_virtual_station": true,
        "capacity": 8
      },
      {
        "station_id": "7ee205b9-dffe-4776-afa7-2a92f8425454",
        "name": "FON017",
        "lat": 45.196948,
        "lon": 5.696497,
        "is_virtual_station": true,
        "capacity": 8
      },
      {
        "station_id": "4c0e57c0-cd80-4314-8dc6-8dec021a8bbb",
        "name": "SEP004",
        "lat": 45.174424,
        "lon": 5.696974,
        "is_virtual_station": true,
        "capacity": 8
      },
      {
        "station_id": "7dabadeb-1a47-446f-baf9-4b9694413af4",
        "name": "GRE280",
        "lat": 45.16916,
        "lon": 5.7405,
        "is_virtual_station": true,
        "capacity": 12
      },
      {
        "station_id": "80bdb973-b002-4c2f-ae61-a0eef8baf893",
        "name": "SEG015",
        "lat": 45.22556,
        "lon": 5.687214,
        "is_virtual_station": true,
        "capacity": 8
      },
      {
        "station_id": "f4c58437-0783-42d0-a03a-2770b356b557",
        "name": "SEP011",
        "lat": 45.18457,
        "lon": 5.699491,
        "is_virtual_station": true,
        "capacity": 8
      },
      {
        "station_id": "865bd41e-bc81-4456-aa44-7a5dba13e1d0",
        "name": "GRE229",
        "lat": 45.18593,
        "lon": 5.728583,
        "is_virtual_station": true,
        "capacity": 12
      },
      {
        "station_id": "33bb2409-0996-48e3-ac9c-354230aaba1c",
        "name": "SMH042",
        "lat": 45.184979,
        "lon": 5.750288,
        "is_virtual_station": true,
        "capacity": 8
      },
      {
        "station_id": "2945c506-74a8-45e5-a888-5c4d59e06149",
        "name": "GIE004",
        "lat": 45.182379,
        "lon": 5.781973,
        "is_virtual_station": true,
        "capacity": 8
      },
      {
        "station_id": "d79be0a8-e94c-4935-9b80-8a1b519ebacd",
        "name": "MON006",
        "lat": 45.219415,
        "lon": 5.810497,
        "is_virtual_station": true,
        "capacity": 8
      },
      {
        "station_id": "842b3dd6-d3a0-4a8c-a79f-540f6e58aa45",
        "name": "SEG010",
        "lat": 45.21992,
        "lon": 5.686052,
        "is_virtual_station": true,
        "capacity": 8
      },
      {
        "station_id": "e3581ea6-13a7-4a5c-88d1-3ee0c2cacc0c",
        "name": "SAS001",
        "lat": 45.213535,
        "lon": 5.661109,
        "is_virtual_station": true,
        "capacity": 8
      },
      {
        "station_id": "2543a4b6-4b8e-443b-b8f3-261c8ed7917a",
        "name": "ECH036",
        "lat": 45.15213,
        "lon": 5.69608,
        "is_virtual_station": true,
        "capacity": 8
      },
      {
        "station_id": "08034277-e109-4732-bdce-4b6949f187ff",
        "name": "MEY032",
        "lat": 45.20883,
        "lon": 5.79777,
        "is_virtual_station": true,
        "capacity": 8
      },
      {
        "station_id": "1ff0f47e-acf7-4f98-9d2b-0a07ff941f3b",
        "name": "GRE143",
        "lat": 45.19899,
        "lon": 5.70839,
        "is_virtual_station": true,
        "capacity": 12
      },
      {
        "station_id": "98f380bc-b78d-4b1a-82ed-100890d9f30d",
        "name": "SEG020",
        "lat": 45.22346,
        "lon": 5.68774,
        "is_virtual_station": true,
        "capacity": 8
      },
      {
        "station_id": "57e616ae-4a00-49e8-b6e2-dfa90aabb6c2",
        "name": "ECH058",
        "lat": 45.15701,
        "lon": 5.715231,
        "is_virtual_station": true,
        "capacity": 8
      },
      {
        "station_id": "3af4a926-fefd-4cee-b741-d03d149a4a15",
        "name": "ECH025",
        "lat": 45.143109,
        "lon": 5.719971,
        "is_virtual_station": true,
        "capacity": 8
      },
      {
        "station_id": "f8f6f38e-8b72-4927-9e84-6b4734b6e9e9",
        "name": "SMH017",
        "lat": 45.184204,
        "lon": 5.759733,
        "is_virtual_station": true,
        "capacity": 8
      },
      {
        "station_id": "34117e03-b13c-4994-a411-bef2cddd7585",
        "name": "FON008",
        "lat": 45.190796,
        "lon": 5.692825,
        "is_virtual_station": true,
        "capacity": 8
      },
      {
        "station_id": "2262c42b-ca5b-48e6-a0c5-fe001f5b88f6",
        "name": "GRE166",
        "lat": 45.18242,
        "lon": 5.71288,
        "is_virtual_station": true,
        "capacity": 12
      },
      {
        "station_id": "f0e3a95a-3f56-43fc-a556-80d90009ee34",
        "name": "EYB008",
        "lat": 45.154228,
        "lon": 5.733849,
        "is_virtual_station": true,
        "capacity": 8
      },
      {
        "station_id": "52d4db92-ea67-4240-9335-89b8825f08aa",
        "name": "LAT006",
        "lat": 45.200123,
        "lon": 5.745295,
        "is_virtual_station": true,
        "capacity": 8
      },
      {
        "station_id": "334a057c-bd02-46d9-82bc-b50e515654d9",
        "name": "GRE049",
        "lat": 45.181564,
        "lon": 5.744551,
        "is_virtual_station": true,
        "capacity": 12
      },
      {
        "station_id": "f8b1b988-436c-4fc9-acfe-93c6123fee07",
        "name": "GRE060",
        "lat": 45.187023,
        "lon": 5.716424,
        "is_virtual_station": true,
        "capacity": 12
      },
      {
        "station_id": "3c2ec8bd-6264-4bdc-a4f8-6d7a705bd08e",
        "name": "GRE080",
        "lat": 45.179295,
        "lon": 5.735411,
        "is_virtual_station": true,
        "capacity": 12
      },
      {
        "station_id": "0bb92d7a-cef2-4b00-a788-de98e1af6d03",
        "name": "GRE163",
        "lat": 45.16722,
        "lon": 5.71223,
        "is_virtual_station": true,
        "capacity": 12
      },
      {
        "station_id": "86140391-0aee-4ef3-8ed9-8b28cbc98949",
        "name": "PON003",
        "lat": 45.124554,
        "lon": 5.697897,
        "is_virtual_station": true,
        "capacity": 8
      },
      {
        "station_id": "3c1f3137-7dee-4282-b06b-75a72b495b3e",
        "name": "LAT009",
        "lat": 45.198323,
        "lon": 5.749414,
        "is_virtual_station": true,
        "capacity": 8
      },
      {
        "station_id": "d7f70ed4-0a6c-4225-b55f-f27e97991952",
        "name": "SEG017",
        "lat": 45.241521,
        "lon": 5.678635,
        "is_virtual_station": true,
        "capacity": 8
      },
      {
        "station_id": "fc7b0afe-8e1f-42bc-a122-c817f8b90965",
        "name": "POI002",
        "lat": 45.157076,
        "lon": 5.762112,
        "is_virtual_station": true,
        "capacity": 8
      },
      {
        "station_id": "eef3ff0f-2f9d-49d4-8d96-fe34655db306",
        "name": "GRE005",
        "lat": 45.182453,
        "lon": 5.737111,
        "is_virtual_station": true,
        "capacity": 12
      },
      {
        "station_id": "abe33a4b-38f1-470f-a2a0-43b746ec47a1",
        "name": "GRE212",
        "lat": 45.18277,
        "lon": 5.72443,
        "is_virtual_station": true,
        "capacity": 12
      },
      {
        "station_id": "7e917fbc-ef9e-4044-b971-d123acd5a726",
        "name": "GRE235",
        "lat": 45.18349,
        "lon": 5.7306,
        "is_virtual_station": true,
        "capacity": 12
      },
      {
        "station_id": "c203ef3a-15d4-4f3d-8e07-68b9e6b70748",
        "name": "SEP002",
        "lat": 45.174232,
        "lon": 5.694117,
        "is_virtual_station": true,
        "capacity": 8
      },
      {
        "station_id": "419d6056-19da-4a89-8490-91245455b922",
        "name": "SEY004",
        "lat": 45.164807,
        "lon": 5.68912,
        "is_virtual_station": true,
        "capacity": 8
      },
      {
        "station_id": "53f1c8f8-63f5-4ee5-8ebb-e0e738caa688",
        "name": "GRE145",
        "lat": 45.17573,
        "lon": 5.70903,
        "is_virtual_station": true,
        "capacity": 12
      },
      {
        "station_id": "34e786c5-a70e-4817-a853-851a4d6cd7e5",
        "name": "COR005",
        "lat": 45.211137,
        "lon": 5.750802,
        "is_virtual_station": true,
        "capacity": 8
      },
      {
        "station_id": "3fc51d91-2196-48e7-b4f0-f74b9b49e16c",
        "name": "GRE297",
        "lat": 45.17872,
        "lon": 5.750432,
        "is_virtual_station": true,
        "capacity": 12
      },
      {
        "station_id": "242a9b2f-4974-45ba-afd5-47ec17180115",
        "name": "MON011",
        "lat": 45.228829,
        "lon": 5.817534,
        "is_virtual_station": true,
        "capacity": 8
      },
      {
        "station_id": "b3d49d9f-9420-4b00-b2cd-bf2f4813d04f",
        "name": "GRE271",
        "lat": 45.19657,
        "lon": 5.73843,
        "is_virtual_station": true,
        "capacity": 12
      },
      {
        "station_id": "66646636-6203-432d-bc74-690219753283",
        "name": "ECH007",
        "lat": 45.14612,
        "lon": 5.705113,
        "is_virtual_station": true,
        "capacity": 8
      },
      {
        "station_id": "0efc656b-d8df-4627-bca5-23c2e68333fb",
        "name": "GRE057",
        "lat": 45.179971,
        "lon": 5.72731,
        "is_virtual_station": true,
        "capacity": 12
      },
      {
        "station_id": "e816094d-ef17-4c95-8d6a-1c638d1bd95a",
        "name": "SEY016",
        "lat": 45.154464,
        "lon": 5.676647,
        "is_virtual_station": true,
        "capacity": 8
      },
      {
        "station_id": "9cb1e88a-9bff-4f56-97dc-3ea40fc979bf",
        "name": "ECH048",
        "lat": 45.1532,
        "lon": 5.728236,
        "is_virtual_station": true,
        "capacity": 8
      },
      {
        "station_id": "970b89d6-183f-400a-bd72-8ea84992983a",
        "name": "GRE116",
        "lat": 45.18854,
        "lon": 5.72397,
        "is_virtual_station": true,
        "capacity": 12
      },
      {
        "station_id": "bcb50619-8f47-4429-864c-5e00fdf8a365",
        "name": "GRE217",
        "lat": 45.16454,
        "lon": 5.72552,
        "is_virtual_station": true,
        "capacity": 12
      },
      {
        "station_id": "d5292e7d-9179-40cc-a27a-8620c58512c2",
        "name": "GRE289",
        "lat": 45.182882,
        "lon": 5.744482,
        "is_virtual_station": true,
        "capacity": 12
      },
      {
        "station_id": "575168d7-2793-48ff-936a-9f8ccd17e173",
        "name": "DUA017",
        "lat": 45.19067,
        "lon": 5.7757,
        "is_virtual_station": true,
        "capacity": 8
      },
      {
        "station_id": "3705f342-49ee-4301-98d0-5f4722695f2f",
        "name": "ECH034",
        "lat": 45.14942,
        "lon": 5.70001,
        "is_virtual_station": true,
        "capacity": 8
      },
      {
        "station_id": "c7029d4d-b834-4eec-8205-efd792cadda7",
        "name": "GRE035",
        "lat": 45.172448,
        "lon": 5.713576,
        "is_virtual_station": true,
        "capacity": 12
      },
      {
        "station_id": "1a093cfd-2d34-4465-a74c-2315fda1269a",
        "name": "SMV015",
        "lat": 45.20292,
        "lon": 5.71471,
        "is_virtual_station": true,
        "capacity": 8
      },
      {
        "station_id": "ed564482-c054-4ed1-8a21-b2d177ad8f0e",
        "name": "GRE041",
        "lat": 45.173965,
        "lon": 5.721292,
        "is_virtual_station": true,
        "capacity": 12
      },
      {
        "station_id": "5a3eca62-2838-402c-bce3-afe6b5c20996",
        "name": "SEG001",
        "lat": 45.22966,
        "lon": 5.68163,
        "is_virtual_station": true,
        "capacity": 8
      },
      {
        "station_id": "13992aaf-ae3e-42da-af59-9e128dd5051b",
        "name": "SEY021",
        "lat": 45.160741,
        "lon": 5.690004,
        "is_virtual_station": true,
        "capacity": 8
      },
      {
        "station_id": "9838cfab-2072-4a00-8e7a-139df1cc9085",
        "name": "ECH042",
        "lat": 45.156517,
        "lon": 5.719031,
        "is_virtual_station": true,
        "capacity": 8
      },
      {
        "station_id": "810beb31-df7c-4567-afc2-abb137d1cc7a",
        "name": "LAT018",
        "lat": 45.20254,
        "lon": 5.74459,
        "is_virtual_station": true,
        "capacity": 8
      },
      {
        "station_id": "2716c18c-567c-41da-9481-54ff9c00b855",
        "name": "GRE053",
        "lat": 45.168315,
        "lon": 5.714332,
        "is_virtual_station": true,
        "capacity": 12
      },
      {
        "station_id": "673f3292-d3f2-49d4-80bc-a6dff2bcfab1",
        "name": "GRE189",
        "lat": 45.18713,
        "lon": 5.71915,
        "is_virtual_station": true,
        "capacity": 12
      },
      {
        "station_id": "1dacc4cb-cbdd-4c3d-8662-bbefbdee1301",
        "name": "FON002",
        "lat": 45.189074,
        "lon": 5.694873,
        "is_virtual_station": true,
        "capacity": 8
      },
      {
        "station_id": "fb8a7bf7-0750-43a5-9ddd-b0abf69a8fb8",
        "name": "LAT008",
        "lat": 45.201897,
        "lon": 5.753475,
        "is_virtual_station": true,
        "capacity": 8
      },
      {
        "station_id": "65adb9e2-57ed-47b9-a8d8-afe256ed36bd",
        "name": "SEY007",
        "lat": 45.157388,
        "lon": 5.685287,
        "is_virtual_station": true,
        "capacity": 8
      },
      {
        "station_id": "f9dd870b-87c2-431c-a294-72b66f38a61d",
        "name": "SAS009",
        "lat": 45.207698,
        "lon": 5.680287,
        "is_virtual_station": true,
        "capacity": 8
      },
      {
        "station_id": "7c5fb63f-5cf2-491e-8c4c-38582b04125e",
        "name": "SEY002",
        "lat": 45.167353,
        "lon": 5.694083,
        "is_virtual_station": true,
        "capacity": 8
      },
      {
        "station_id": "0be4418e-769f-4b15-990b-76fcec0b05c0",
        "name": "GRE215",
        "lat": 45.19364,
        "lon": 5.72453,
        "is_virtual_station": true,
        "capacity": 12
      },
      {
        "station_id": "322ff5b2-cffb-4425-b888-0434ec184a20",
        "name": "EYB014",
        "lat": 45.16501,
        "lon": 5.74283,
        "is_virtual_station": true,
        "capacity": 8
      },
      {
        "station_id": "2fef39b6-af88-4d23-a0f3-c3ee80e60c8d",
        "name": "ECH003",
        "lat": 45.145507,
        "lon": 5.716716,
        "is_virtual_station": true,
        "capacity": 8
      },
      {
        "station_id": "6839077e-f588-4f7c-961f-fc0ee4dffb51",
        "name": "GRE154",
        "lat": 45.19188,
        "lon": 5.71043,
        "is_virtual_station": true,
        "capacity": 12
      },
      {
        "station_id": "21c79e72-9426-4f6a-8a26-3454419ea3e5",
        "name": "GRE266",
        "lat": 45.196973,
        "lon": 5.737113,
        "is_virtual_station": true,
        "capacity": 12
      },
      {
        "station_id": "4d163bf7-7d9e-49aa-86f4-b87147721f49",
        "name": "GRE108",
        "lat": 45.1808,
        "lon": 5.705713,
        "is_virtual_station": true,
        "capacity": 12
      },
      {
        "station_id": "0419ce32-7757-4a7d-9327-e2928f5a935c",
        "name": "GRE028",
        "lat": 45.185114,
        "lon": 5.7234,
        "is_virtual_station": true,
        "capacity": 12
      },
      {
        "station_id": "942d0a67-ea95-4b66-a636-02f886af145d",
        "name": "EYB013",
        "lat": 45.156726,
        "lon": 5.751232,
        "is_virtual_station": true,
        "capacity": 8
      },
      {
        "station_id": "e1b6f5dd-23c5-4f6b-9b2e-d9f7ecb0c288",
        "name": "SEG006",
        "lat": 45.216693,
        "lon": 5.682034,
        "is_virtual_station": true,
        "capacity": 8
      },
      {
        "station_id": "9caa71d2-80f5-4945-9795-0ceaca3e03af",
        "name": "GRE304",
        "lat": 45.20335,
        "lon": 5.703262,
        "is_virtual_station": true,
        "capacity": 12
      },
      {
        "station_id": "8ab8254a-7c2b-4331-95f6-a48f286b45b6",
        "name": "SAS006",
        "lat": 45.208962,
        "lon": 5.667943,
        "is_virtual_station": true,
        "capacity": 8
      },
      {
        "station_id": "0a5b4345-3af6-4354-af30-db7ca9d2ecaf",
        "name": "EYB017",
        "lat": 45.156742,
        "lon": 5.737671,
        "is_virtual_station": true,
        "capacity": 8
      },
      {
        "station_id": "cde606a4-0e30-43b8-8c44-873f3ea5130f",
        "name": "GRE230",
        "lat": 45.18778,
        "lon": 5.72904,
        "is_virtual_station": true,
        "capacity": 12
      },
      {
        "station_id": "2a3f1883-844f-43f5-b40b-25d922a29371",
        "name": "SMV005",
        "lat": 45.213948,
        "lon": 5.69792,
        "is_virtual_station": true,
        "capacity": 8
      },
      {
        "station_id": "9cb9c135-3dbe-46dd-8e36-146ad8a44e39",
        "name": "GRE233",
        "lat": 45.18894,
        "lon": 5.72924,
        "is_virtual_station": true,
        "capacity": 12
      },
      {
        "station_id": "b6ada8f7-f303-40a7-a0ad-c73c4f5654e4",
        "name": "GRE037",
        "lat": 45.176971,
        "lon": 5.727073,
        "is_virtual_station": true,
        "capacity": 12
      },
      {
        "station_id": "0d553e94-3098-4fe7-81d4-b448e5f404b7",
        "name": "SEP016",
        "lat": 45.170608,
        "lon": 5.690165,
        "is_virtual_station": true,
        "capacity": 8
      },
      {
        "station_id": "4a5cc58e-fe13-4383-8234-996e50c8717d",
        "name": "POI001",
        "lat": 45.159359,
        "lon": 5.758084,
        "is_virtual_station": true,
        "capacity": 8
      },
      {
        "station_id": "afecd890-09e3-4a47-8d7e-ccf5d9fd2033",
        "name": "GRE173",
        "lat": 45.17644,
        "lon": 5.71485,
        "is_virtual_station": true,
        "capacity": 12
      },
      {
        "station_id": "1545df1d-a13a-40f5-9983-052b53887436",
        "name": "SEP007",
        "lat": 45.177098,
        "lon": 5.693651,
        "is_virtual_station": true,
        "capacity": 8
      },
      {
        "station_id": "a69ddf69-8694-4769-b176-9dc909fd3070",
        "name": "GRE038",
        "lat": 45.176278,
        "lon": 5.729625,
        "is_virtual_station": true,
        "capacity": 12
      },
      {
        "station_id": "b2145a74-6d25-46df-b446-91ff1f584688",
        "name": "ECH016",
        "lat": 45.148521,
        "lon": 5.717464,
        "is_virtual_station": true,
        "capacity": 8
      },
      {
        "station_id": "30f4097e-4a0d-4740-81c3-ce2e436acff0",
        "name": "DUA020",
        "lat": 45.191953,
        "lon": 5.766158,
        "is_virtual_station": true,
        "capacity": 8
      },
      {
        "station_id": "5bd0c720-99e8-4e28-8d08-14ff75223579",
        "name": "EYB004",
        "lat": 45.149063,
        "lon": 5.740556,
        "is_virtual_station": true,
        "capacity": 8
      },
      {
        "station_id": "69a387de-2bc8-4cb7-a6b1-ee5f54ffb255",
        "name": "SMH043",
        "lat": 45.182371,
        "lon": 5.750826,
        "is_virtual_station": true,
        "capacity": 8
      },
      {
        "station_id": "3f0f2551-32d9-4909-8d52-5bbfeb3be3ac",
        "name": "LAT019",
        "lat": 45.196638,
        "lon": 5.752903,
        "is_virtual_station": true,
        "capacity": 8
      },
      {
        "station_id": "2240c452-cd56-4f46-ab37-12a0a2943f9b",
        "name": "GRE015",
        "lat": 45.163443,
        "lon": 5.728499,
        "is_virtual_station": true,
        "capacity": 12
      },
      {
        "station_id": "322e48e2-5473-4f77-957a-0f08c8e7921a",
        "name": "GRE175",
        "lat": 45.194201,
        "lon": 5.71497,
        "is_virtual_station": true,
        "capacity": 12
      },
      {
        "station_id": "610af180-ff9a-49b9-86f3-20b6db85c525",
        "name": "LAT002",
        "lat": 45.205335,
        "lon": 5.738004,
        "is_virtual_station": true,
        "capacity": 8
      },
      {
        "station_id": "e717538b-8395-40bb-8971-7e6f6de53e00",
        "name": "GRE170",
        "lat": 45.18393,
        "lon": 5.71401,
        "is_virtual_station": true,
        "capacity": 12
      },
      {
        "station_id": "6f289569-bda8-44e7-8d49-87ab2edd0d98",
        "name": "SMV001",
        "lat": 45.207534,
        "lon": 5.707355,
        "is_virtual_station": true,
        "capacity": 8
      },
      {
        "station_id": "9e62486c-9670-47b7-89d6-c46edf55fc62",
        "name": "DUA001",
        "lat": 45.198544,
        "lon": 5.777236,
        "is_virtual_station": true,
        "capacity": 8
      },
      {
        "station_id": "3ddb991d-f93c-4e5a-9616-231caf7e6193",
        "name": "GRE288",
        "lat": 45.18031,
        "lon": 5.74391,
        "is_virtual_station": true,
        "capacity": 12
      },
      {
        "station_id": "f09e6234-d6ed-4386-9361-384e5b8db50c",
        "name": "ECH037",
        "lat": 45.147987,
        "lon": 5.693136,
        "is_virtual_station": true,
        "capacity": 8
      },
      {
        "station_id": "42dce760-9e15-4b59-8c41-1397cc2a5e15",
        "name": "GIE007",
        "lat": 45.187884,
        "lon": 5.807932,
        "is_virtual_station": true,
        "capacity": 8
      },
      {
        "station_id": "86350d2c-29f9-4f5b-bc64-84d774b37f38",
        "name": "GRE014",
        "lat": 45.167029,
        "lon": 5.720494,
        "is_virtual_station": true,
        "capacity": 12
      },
      {
        "station_id": "ca51ed67-2384-46bd-9667-f22066900a55",
        "name": "SEY001",
        "lat": 45.158588,
        "lon": 5.682216,
        "is_virtual_station": true,
        "capacity": 8
      },
      {
        "station_id": "7dad69c6-0dd4-4cad-a2e4-c8889a267c5b",
        "name": "SAS013",
        "lat": 45.199796,
        "lon": 5.669184,
        "is_virtual_station": true,
        "capacity": 8
      },
      {
        "station_id": "edd44799-665a-4092-97de-bf1fa56d0c56",
        "name": "SMH052",
        "lat": 45.183601,
        "lon": 5.754587,
        "is_virtual_station": true,
        "capacity": 8
      },
      {
        "station_id": "b93b6c11-263c-4f6f-a30b-58c5e655f42d",
        "name": "SAS017",
        "lat": 45.218625,
        "lon": 5.664893,
        "is_virtual_station": true,
        "capacity": 8
      },
      {
        "station_id": "fba5dda3-cbba-4f6e-9ad8-8e2f7f39f32d",
        "name": "GRE269",
        "lat": 45.20106,
        "lon": 5.73825,
        "is_virtual_station": true,
        "capacity": 12
      },
      {
        "station_id": "01c51334-c648-4b60-ae42-2d6721d684fa",
        "name": "GRE148",
        "lat": 45.18599,
        "lon": 5.7094,
        "is_virtual_station": true,
        "capacity": 12
      },
      {
        "station_id": "3fb7484d-6a6b-4809-ad2b-74d1c1fb9716",
        "name": "GRE048",
        "lat": 45.184678,
        "lon": 5.721315,
        "is_virtual_station": true,
        "capacity": 12
      },
      {
        "station_id": "201f2f9b-ccc5-46c9-98dd-c5d579ee8648",
        "name": "ECH052",
        "lat": 45.137652,
        "lon": 5.712825,
        "is_virtual_station": true,
        "capacity": 8
      },
      {
        "station_id": "abcf5ec1-ae12-4444-b1df-94ee15076379",
        "name": "GRE076",
        "lat": 45.181763,
        "lon": 5.707406,
        "is_virtual_station": true,
        "capacity": 12
      },
      {
        "station_id": "91fbd092-b4db-473c-ad28-dc6234905a71",
        "name": "GRE032",
        "lat": 45.166065,
        "lon": 5.739769,
        "is_virtual_station": true,
        "capacity": 12
      },
      {
        "station_id": "bf9f6d19-5cab-40ea-b30a-8a40291a7a41",
        "name": "SMV008",
        "lat": 45.216085,
        "lon": 5.69256,
        "is_virtual_station": true,
        "capacity": 8
      },
      {
        "station_id": "2d87a1c1-3428-4c07-a135-ad590b83a7da",
        "name": "SMH044",
        "lat": 45.186969,
        "lon": 5.756621,
        "is_virtual_station": true,
        "capacity": 8
      },
      {
        "station_id": "ac4340d8-b4af-43ea-9149-b89f84501988",
        "name": "ECH057",
        "lat": 45.150697,
        "lon": 5.715846,
        "is_virtual_station": true,
        "capacity": 8
      },
      {
        "station_id": "715ab7b3-a860-4603-89af-a28901b97dbb",
        "name": "GRE132",
        "lat": 45.17797,
        "lon": 5.70527,
        "is_virtual_station": true,
        "capacity": 12
      },
      {
        "station_id": "ec8625ab-2560-4703-ad1f-dc8e796e37a6",
        "name": "GRE045",
        "lat": 45.182026,
        "lon": 5.715194,
        "is_virtual_station": true,
        "capacity": 12
      },
      {
        "station_id": "c580df33-5ee1-4672-a163-d4a27b5ac15b",
        "name": "ECH005",
        "lat": 45.153412,
        "lon": 5.711809,
        "is_virtual_station": true,
        "capacity": 8
      },
      {
        "station_id": "16ca7115-23dd-4efc-a131-b5e5d20d9b30",
        "name": "SEG021",
        "lat": 45.232773,
        "lon": 5.679353,
        "is_virtual_station": true,
        "capacity": 8
      },
      {
        "station_id": "b1afa00e-531c-4ea6-b915-11d86bd14dc5",
        "name": "MEY009",
        "lat": 45.223116,
        "lon": 5.793161,
        "is_virtual_station": true,
        "capacity": 8
      },
      {
        "station_id": "d19d69f7-d642-45c2-9a74-bfa1f0e6da95",
        "name": "GRE262",
        "lat": 45.20072,
        "lon": 5.73547,
        "is_virtual_station": true,
        "capacity": 12
      },
      {
        "station_id": "76d055ab-d821-47c9-897b-881339332b32",
        "name": "GRE291",
        "lat": 45.17049,
        "lon": 5.74493,
        "is_virtual_station": true,
        "capacity": 12
      },
      {
        "station_id": "9d4499cd-8ebd-45e0-8402-bef9000d34fb",
        "name": "GRE075",
        "lat": 45.179963,
        "lon": 5.714594,
        "is_virtual_station": true,
        "capacity": 12
      },
      {
        "station_id": "0c063e36-075e-4d93-8f34-12a572a080a6",
        "name": "MEY007",
        "lat": 45.20416,
        "lon": 5.77567,
        "is_virtual_station": true,
        "capacity": 8
      },
      {
        "station_id": "66c6c490-3243-4de0-83b9-835ae73a60ea",
        "name": "GRE254",
        "lat": 45.19728,
        "lon": 5.73412,
        "is_virtual_station": true,
        "capacity": 12
      },
      {
        "station_id": "409299fa-ecff-4645-b787-1a1995993508",
        "name": "FON022",
        "lat": 45.18692,
        "lon": 5.691778,
        "is_virtual_station": true,
        "capacity": 8
      },
      {
        "station_id": "3557d6b9-fde8-4a18-97c4-87b36e38371a",
        "name": "SMH051",
        "lat": 45.18481,
        "lon": 5.766413,
        "is_virtual_station": true,
        "capacity": 8
      },
      {
        "station_id": "4c885643-5c13-4c93-957d-aa640e80214a",
        "name": "GRE199",
        "lat": 45.19119,
        "lon": 5.72156,
        "is_virtual_station": true,
        "capacity": 12
      },
      {
        "station_id": "3fda0cbc-0447-4807-97b9-a89059fb6e6c",
        "name": "GRE179",
        "lat": 45.181549,
        "lon": 5.71709,
        "is_virtual_station": true,
        "capacity": 12
      },
      {
        "station_id": "414a87aa-c988-40a4-95c6-13f4f9e02a5d",
        "name": "GRE066",
        "lat": 45.184599,
        "lon": 5.710739,
        "is_virtual_station": true,
        "capacity": 12
      },
      {
        "station_id": "7a981610-1f9f-480f-9781-7c6c9f8d2b89",
        "name": "GRE055",
        "lat": 45.190906,
        "lon": 5.70967,
        "is_virtual_station": true,
        "capacity": 12
      },
      {
        "station_id": "a5337953-d261-48a4-93ed-d282d1a9eb29",
        "name": "GRE109",
        "lat": 45.18977,
        "lon": 5.71806,
        "is_virtual_station": true,
        "capacity": 12
      },
      {
        "station_id": "8c2b6b6f-e340-4af4-96ef-01eae620b351",
        "name": "GRE094",
        "lat": 45.168435,
        "lon": 5.73002,
        "is_virtual_station": true,
        "capacity": 12
      },
      {
        "station_id": "d6808fe4-28f8-418c-8f41-407e402d85ac",
        "name": "GRE206",
        "lat": 45.18727,
        "lon": 5.72263,
        "is_virtual_station": true,
        "capacity": 12
      },
      {
        "station_id": "5a6a8655-729b-46d0-bd82-a29f310c522a",
        "name": "GRE127",
        "lat": 45.1843,
        "lon": 5.70345,
        "is_virtual_station": true,
        "capacity": 12
      },
      {
        "station_id": "f83c2a81-8ded-46cd-9f7a-f0287e8d0f2d",
        "name": "GRE211",
        "lat": 45.17836,
        "lon": 5.7241,
        "is_virtual_station": true,
        "capacity": 12
      },
      {
        "station_id": "21dfc9f9-e9d9-4503-adf0-2527241b715d",
        "name": "SMH024",
        "lat": 45.179295,
        "lon": 5.755422,
        "is_virtual_station": true,
        "capacity": 8
      },
      {
        "station_id": "4596d23c-eaf0-452f-ad2b-ff50b5c2bf3b",
        "name": "GRE061",
        "lat": 45.188237,
        "lon": 5.712719,
        "is_virtual_station": true,
        "capacity": 12
      },
      {
        "station_id": "00a497bd-e740-4c08-9bce-764f32d0c647",
        "name": "ECH033",
        "lat": 45.152436,
        "lon": 5.704289,
        "is_virtual_station": true,
        "capacity": 8
      },
      {
        "station_id": "f49a99e6-677e-48c9-a8a0-85a7ae32c15d",
        "name": "DUA033",
        "lat": 45.197,
        "lon": 5.7765,
        "is_virtual_station": true,
        "capacity": 8
      },
      {
        "station_id": "073c8e55-cf0b-4dad-8480-c2336e1dbc90",
        "name": "SEP014",
        "lat": 45.17542,
        "lon": 5.687603,
        "is_virtual_station": true,
        "capacity": 8
      },
      {
        "station_id": "8e56a536-a3d3-4531-bf7b-6da69cb6f360",
        "name": "GRE295",
        "lat": 45.18756,
        "lon": 5.74749,
        "is_virtual_station": true,
        "capacity": 12
      },
      {
        "station_id": "bff10932-0a03-428f-bddb-296101b057d7",
        "name": "DUA031",
        "lat": 45.197391,
        "lon": 5.77126,
        "is_virtual_station": true,
        "capacity": 8
      },
      {
        "station_id": "3566165e-888d-4f8b-9d01-b049764ef22d",
        "name": "SMH019",
        "lat": 45.182847,
        "lon": 5.763796,
        "is_virtual_station": true,
        "capacity": 8
      },
      {
        "station_id": "0648c08b-e442-45db-83e5-88250e70599f",
        "name": "ECH011",
        "lat": 45.15306,
        "lon": 5.71885,
        "is_virtual_station": true,
        "capacity": 8
      },
      {
        "station_id": "ad35ef78-9373-4b7b-b38b-6e9668646159",
        "name": "GRE227",
        "lat": 45.182772,
        "lon": 5.728106,
        "is_virtual_station": true,
        "capacity": 12
      },
      {
        "station_id": "5462cf2c-5fd7-450d-83c8-696d5d86a0fa",
        "name": "FON030",
        "lat": 45.192276,
        "lon": 5.7004,
        "is_virtual_station": true,
        "capacity": 8
      },
      {
        "station_id": "7c0c696e-98ab-4098-9062-cc1a2290516f",
        "name": "SAS005",
        "lat": 45.206689,
        "lon": 5.662459,
        "is_virtual_station": true,
        "capacity": 8
      },
      {
        "station_id": "d47c85e3-55c9-4c39-ab2c-7062ffadc460",
        "name": "ECH053",
        "lat": 45.140761,
        "lon": 5.711643,
        "is_virtual_station": true,
        "capacity": 8
      },
      {
        "station_id": "a155d8aa-ed80-4cde-8538-9030ce1fe95d",
        "name": "DUA004",
        "lat": 45.194178,
        "lon": 5.77022,
        "is_virtual_station": true,
        "capacity": 8
      },
      {
        "station_id": "6643b0be-98e6-419a-b612-38f837d3b2a1",
        "name": "GRE006",
        "lat": 45.184823,
        "lon": 5.715504,
        "is_virtual_station": true,
        "capacity": 12
      },
      {
        "station_id": "ac4f762b-15fb-4816-8ba0-27ab942a2923",
        "name": "GRE086",
        "lat": 45.180472,
        "lon": 5.73431,
        "is_virtual_station": true,
        "capacity": 12
      },
      {
        "station_id": "ea735c2a-77c2-4366-84dc-bcfca3652e03",
        "name": "PON013",
        "lat": 45.131602,
        "lon": 5.696302,
        "is_virtual_station": true,
        "capacity": 8
      },
      {
        "station_id": "11df56d6-b831-4b27-903f-186e0d174aa1",
        "name": "GRE174",
        "lat": 45.17326,
        "lon": 5.71423,
        "is_virtual_station": true,
        "capacity": 12
      },
      {
        "station_id": "1c4dc23b-2dc0-499f-a37b-a7c4470a9807",
        "name": "GRE146",
        "lat": 45.1845,
        "lon": 5.70915,
        "is_virtual_station": true,
        "capacity": 12
      },
      {
        "station_id": "f812101e-ab5e-49b3-9113-5600da1c1415",
        "name": "GRE095",
        "lat": 45.175681,
        "lon": 5.744106,
        "is_virtual_station": true,
        "capacity": 12
      },
      {
        "station_id": "4b3c5374-a5a2-4b76-ba8e-feffcef9c4ba",
        "name": "ECH029",
        "lat": 45.137067,
        "lon": 5.716327,
        "is_virtual_station": true,
        "capacity": 8
      },
      {
        "station_id": "8093241e-dc5a-44f7-a376-3db6f3882e2a",
        "name": "DUA030",
        "lat": 45.19869,
        "lon": 5.7743,
        "is_virtual_station": true,
        "capacity": 8
      },
      {
        "station_id": "d4d15047-d642-47f8-80be-d6839946f4d1",
        "name": "GRE065",
        "lat": 45.185301,
        "lon": 5.70926,
        "is_virtual_station": true,
        "capacity": 12
      },
      {
        "station_id": "02466951-4fe5-492f-890c-bfcb860d5aaf",
        "name": "PON006",
        "lat": 45.129785,
        "lon": 5.695503,
        "is_virtual_station": true,
        "capacity": 8
      },
      {
        "station_id": "0ea45aa0-d626-4d84-9e96-587cf2119385",
        "name": "GRE078",
        "lat": 45.174122,
        "lon": 5.706958,
        "is_virtual_station": true,
        "capacity": 12
      },
      {
        "station_id": "9ef83d38-2ab0-4528-a51c-a8e96766e6c8",
        "name": "GRE138",
        "lat": 45.20063,
        "lon": 5.70675,
        "is_virtual_station": true,
        "capacity": 12
      },
      {
        "station_id": "37f4d800-3456-4e2d-acda-ddae5d43bea3",
        "name": "SEG009",
        "lat": 45.227386,
        "lon": 5.669992,
        "is_virtual_station": true,
        "capacity": 8
      },
      {
        "station_id": "8a7e82a2-fbf7-4889-b7f7-4a55ea82f97b",
        "name": "SMH023",
        "lat": 45.179284,
        "lon": 5.762634,
        "is_virtual_station": true,
        "capacity": 8
      },
      {
        "station_id": "800d77e1-013e-43af-a741-a4bf8d669e02",
        "name": "GRE276",
        "lat": 45.188899,
        "lon": 5.73874,
        "is_virtual_station": true,
        "capacity": 12
      },
      {
        "station_id": "8a5299fb-2b6b-4530-a58d-e00be6c03d68",
        "name": "GRE245",
        "lat": 45.185,
        "lon": 5.73243,
        "is_virtual_station": true,
        "capacity": 12
      },
      {
        "station_id": "8d75418d-1b6d-4659-ba8a-1b479cacf409",
        "name": "SMH003",
        "lat": 45.179841,
        "lon": 5.764759,
        "is_virtual_station": true,
        "capacity": 8
      },
      {
        "station_id": "0fa507b2-c4c6-4d92-a440-75064fcb9577",
        "name": "SMH020",
        "lat": 45.183539,
        "lon": 5.766142,
        "is_virtual_station": true,
        "capacity": 8
      },
      {
        "station_id": "b9c10daa-e957-4b51-9fcd-68d204f4b474",
        "name": "GRE129",
        "lat": 45.19035,
        "lon": 5.70487,
        "is_virtual_station": true,
        "capacity": 12
      },
      {
        "station_id": "ba48805f-6b7e-4cd6-9f9f-4a05a0992dbc",
        "name": "FON005",
        "lat": 45.201094,
        "lon": 5.680039,
        "is_virtual_station": true,
        "capacity": 8
      },
      {
        "station_id": "2088c448-2fa1-4973-917d-9aeb4f74027b",
        "name": "ECH049",
        "lat": 45.13684,
        "lon": 5.71214,
        "is_virtual_station": true,
        "capacity": 8
      },
      {
        "station_id": "dd59c2a3-92e7-4e4c-9ada-488a667f0f8e",
        "name": "PON002",
        "lat": 45.13789,
        "lon": 5.702586,
        "is_virtual_station": true,
        "capacity": 8
      },
      {
        "station_id": "e1a43e1c-0b94-4af1-9fbd-673c8f1f44b1",
        "name": "GRE090",
        "lat": 45.175374,
        "lon": 5.716173,
        "is_virtual_station": true,
        "capacity": 12
      },
      {
        "station_id": "26bf4007-9734-4f48-80eb-73f49f669291",
        "name": "FON006",
        "lat": 45.19755,
        "lon": 5.68687,
        "is_virtual_station": true,
        "capacity": 8
      },
      {
        "station_id": "c736a56e-5384-48d0-984d-c065d0ed57ab",
        "name": "SMH049",
        "lat": 45.185382,
        "lon": 5.763763,
        "is_virtual_station": true,
        "capacity": 8
      },
      {
        "station_id": "5442aea5-fd96-46f0-aa1e-f6231403c2a7",
        "name": "SEP015",
        "lat": 45.180045,
        "lon": 5.695473,
        "is_virtual_station": true,
        "capacity": 8
      },
      {
        "station_id": "7f545b8c-8c49-4342-84ab-305e15bd657a",
        "name": "DUA016",
        "lat": 45.191766,
        "lon": 5.770292,
        "is_virtual_station": true,
        "capacity": 8
      },
      {
        "station_id": "99eb51f9-0142-453c-b9ea-71bc4e99e26b",
        "name": "GRE223",
        "lat": 45.17038,
        "lon": 5.7274,
        "is_virtual_station": true,
        "capacity": 12
      },
      {
        "station_id": "a53f4f74-125c-4441-9509-465a4e5989a4",
        "name": "GRE264",
        "lat": 45.19365,
        "lon": 5.73618,
        "is_virtual_station": true,
        "capacity": 12
      },
      {
        "station_id": "a6baa9b9-eaaf-4688-96ec-d1950ab38f4b",
        "name": "COR007",
        "lat": 45.217312,
        "lon": 5.77566,
        "is_virtual_station": true,
        "capacity": 8
      },
      {
        "station_id": "91ab0e59-0114-4653-963e-e2d99ff9f4e7",
        "name": "GRE114",
        "lat": 45.19066,
        "lon": 5.7186,
        "is_virtual_station": true,
        "capacity": 12
      },
      {
        "station_id": "ea8106ba-1a89-4743-bf89-aee9f974b741",
        "name": "FON029",
        "lat": 45.185084,
        "lon": 5.68832,
        "is_virtual_station": true,
        "capacity": 8
      },
      {
        "station_id": "ecc488ef-c412-446f-ae31-090d86570646",
        "name": "MEY002",
        "lat": 45.20721,
        "lon": 5.7584,
        "is_virtual_station": true,
        "capacity": 8
      },
      {
        "station_id": "339da385-9fea-46b7-b3f4-b2a515b414c2",
        "name": "MEY029",
        "lat": 45.209345,
        "lon": 5.794552,
        "is_virtual_station": true,
        "capacity": 8
      },
      {
        "station_id": "841497e1-bf1f-4028-ae5b-c44c6fdc0373",
        "name": "GRE294",
        "lat": 45.18434,
        "lon": 5.74675,
        "is_virtual_station": true,
        "capacity": 12
      },
      {
        "station_id": "f3b9ca1b-5b8b-49cd-a16a-b898a00c0225",
        "name": "ECH022",
        "lat": 45.143864,
        "lon": 5.723254,
        "is_virtual_station": true,
        "capacity": 8
      },
      {
        "station_id": "bcdaae05-367f-4ec2-b066-53273bdac474",
        "name": "GRE093",
        "lat": 45.184113,
        "lon": 5.711856,
        "is_virtual_station": true,
        "capacity": 12
      },
      {
        "station_id": "abede6f8-0550-41cd-9246-a6f76859f3e9",
        "name": "ECH013",
        "lat": 45.14512,
        "lon": 5.69803,
        "is_virtual_station": true,
        "capacity": 8
      },
      {
        "station_id": "042e616f-d0b5-4a52-9731-41890ad11b89",
        "name": "SAS018",
        "lat": 45.220333,
        "lon": 5.663333,
        "is_virtual_station": true,
        "capacity": 8
      },
      {
        "station_id": "f0c758b7-04c4-467f-ba58-d51548a333ba",
        "name": "COR002",
        "lat": 45.210317,
        "lon": 5.762289,
        "is_virtual_station": true,
        "capacity": 8
      },
      {
        "station_id": "8aeef4fc-c310-4346-a78f-a494772db2ce",
        "name": "SEP017",
        "lat": 45.180581,
        "lon": 5.687435,
        "is_virtual_station": true,
        "capacity": 8
      },
      {
        "station_id": "ffacb40a-6316-4196-a027-1e077508230b",
        "name": "ECH001",
        "lat": 45.147103,
        "lon": 5.723232,
        "is_virtual_station": true,
        "capacity": 8
      },
      {
        "station_id": "1adf76b4-45d3-4b4b-8225-1fcf94a84102",
        "name": "ECH010",
        "lat": 45.143354,
        "lon": 5.699955,
        "is_virtual_station": true,
        "capacity": 8
      },
      {
        "station_id": "0867e969-a058-4aab-bc95-6df833d0bf6c",
        "name": "PON010",
        "lat": 45.126893,
        "lon": 5.695259,
        "is_virtual_station": true,
        "capacity": 8
      },
      {
        "station_id": "e9e5b3fa-5c12-49b6-b80a-0f020e95649e",
        "name": "GRE137",
        "lat": 45.18901,
        "lon": 5.70674,
        "is_virtual_station": true,
        "capacity": 12
      },
      {
        "station_id": "a2be58f3-b984-47a3-97b2-a72363f0a3dd",
        "name": "SMH004",
        "lat": 45.174229,
        "lon": 5.757966,
        "is_virtual_station": true,
        "capacity": 8
      },
      {
        "station_id": "f8d93a70-af00-4082-9dc6-e980f815d91b",
        "name": "GRE160",
        "lat": 45.19742,
        "lon": 5.7116,
        "is_virtual_station": true,
        "capacity": 12
      },
      {
        "station_id": "a00d25ad-cb71-4401-bad4-cbc44eec157f",
        "name": "DUA002",
        "lat": 45.194456,
        "lon": 5.772734,
        "is_virtual_station": true,
        "capacity": 8
      },
      {
        "station_id": "74c7c770-08d9-4299-89ab-b920eec8cb3a",
        "name": "SEY018",
        "lat": 45.160717,
        "lon": 5.695675,
        "is_virtual_station": true,
        "capacity": 8
      },
      {
        "station_id": "77b6b2c3-85fb-44a2-8a91-b50b7a37aecb",
        "name": "GRE282",
        "lat": 45.18367,
        "lon": 5.74082,
        "is_virtual_station": true,
        "capacity": 12
      },
      {
        "station_id": "badbad92-6972-47a5-aaaa-27104720e9bb",
        "name": "MEY025",
        "lat": 45.211377,
        "lon": 5.787389,
        "is_virtual_station": true,
        "capacity": 8
      },
      {
        "station_id": "605a2e37-fb73-424a-8384-cf6559cf9ee8",
        "name": "SMV012",
        "lat": 45.200677,
        "lon": 5.718038,
        "is_virtual_station": true,
        "capacity": 8
      },
      {
        "station_id": "8d5e621e-3c98-4179-81ff-755d797fd01f",
        "name": "GRE155",
        "lat": 45.20021,
        "lon": 5.7105,
        "is_virtual_station": true,
        "capacity": 12
      },
      {
        "station_id": "c1eba6b4-ce24-4904-8363-10753e1f2d2b",
        "name": "GRE159",
        "lat": 45.17896,
        "lon": 5.71118,
        "is_virtual_station": true,
        "capacity": 12
      },
      {
        "station_id": "ff6e6163-17bc-4cbf-bf17-c02603d87480",
        "name": "FON028",
        "lat": 45.188848,
        "lon": 5.700676,
        "is_virtual_station": true,
        "capacity": 8
      },
      {
        "station_id": "eb2e9f17-6b9d-40de-83d4-a174fbc30a27",
        "name": "GRE042",
        "lat": 45.17545,
        "lon": 5.72051,
        "is_virtual_station": true,
        "capacity": 12
      },
      {
        "station_id": "b38fccbc-18b3-4879-8f69-dcb3eed2b79d",
        "name": "SAS016",
        "lat": 45.216657,
        "lon": 5.661903,
        "is_virtual_station": true,
        "capacity": 8
      },
      {
        "station_id": "97eabc41-71c6-44bb-8769-06a12df019a4",
        "name": "FON025",
        "lat": 45.191151,
        "lon": 5.688843,
        "is_virtual_station": true,
        "capacity": 8
      },
      {
        "station_id": "78a86c82-74cc-4ac2-84a4-0665c599aebb",
        "name": "SEG016",
        "lat": 45.237912,
        "lon": 5.688644,
        "is_virtual_station": true,
        "capacity": 8
      },
      {
        "station_id": "88639de8-9b7f-4683-808b-b2b52c9027c7",
        "name": "ECH008",
        "lat": 45.14632,
        "lon": 5.703757,
        "is_virtual_station": true,
        "capacity": 8
      },
      {
        "station_id": "a9a704a1-cf83-41ff-a772-a3b05a01972a",
        "name": "EYB016",
        "lat": 45.146873,
        "lon": 5.754521,
        "is_virtual_station": true,
        "capacity": 8
      },
      {
        "station_id": "d465b8a7-8d14-47e1-aa6d-505b2360c98a",
        "name": "GRE220",
        "lat": 45.17944,
        "lon": 5.72625,
        "is_virtual_station": true,
        "capacity": 12
      },
      {
        "station_id": "63f2007e-012e-4238-af2f-4413161c02f3",
        "name": "SMH031",
        "lat": 45.169393,
        "lon": 5.768533,
        "is_virtual_station": true,
        "capacity": 8
      },
      {
        "station_id": "29d71a56-9efe-44ef-bf50-08c2a04e6725",
        "name": "GRE043",
        "lat": 45.174823,
        "lon": 5.719082,
        "is_virtual_station": true,
        "capacity": 12
      },
      {
        "station_id": "dacd2df4-6172-4137-a872-de73177a735a",
        "name": "GRE281",
        "lat": 45.17803,
        "lon": 5.74064,
        "is_virtual_station": true,
        "capacity": 12
      },
      {
        "station_id": "159a4bab-33a6-4e9c-bad3-cbaf9c597cbe",
        "name": "SEP008",
        "lat": 45.177088,
        "lon": 5.699051,
        "is_virtual_station": true,
        "capacity": 8
      },
      {
        "station_id": "906549ae-ae74-400c-8234-9517637a0120",
        "name": "EYB010",
        "lat": 45.14849,
        "lon": 5.74796,
        "is_virtual_station": true,
        "capacity": 8
      },
      {
        "station_id": "a68e67cd-f824-4d15-b6be-0dcdedb4eb5a",
        "name": "LAT012",
        "lat": 45.197574,
        "lon": 5.753134,
        "is_virtual_station": true,
        "capacity": 8
      },
      {
        "station_id": "aabe2500-db92-4181-afc8-1543f690df8c",
        "name": "FON023",
        "lat": 45.19401,
        "lon": 5.68016,
        "is_virtual_station": true,
        "capacity": 8
      },
      {
        "station_id": "06696b1f-bf67-43d6-92da-ca3a2746e0d6",
        "name": "GRE059",
        "lat": 45.16557,
        "lon": 5.723785,
        "is_virtual_station": true,
        "capacity": 12
      },
      {
        "station_id": "0c832b8f-ebe3-4786-8954-d95b3d911f64",
        "name": "DUA015",
        "lat": 45.18924,
        "lon": 5.774474,
        "is_virtual_station": true,
        "capacity": 8
      },
      {
        "station_id": "fba27fba-336e-4f2a-b570-a77fd0e7d451",
        "name": "MON001",
        "lat": 45.22793,
        "lon": 5.804017,
        "is_virtual_station": true,
        "capacity": 8
      },
      {
        "station_id": "b70298ca-cab3-451e-b700-3a62a0d58000",
        "name": "GRE290",
        "lat": 45.174532,
        "lon": 5.744858,
        "is_virtual_station": true,
        "capacity": 12
      },
      {
        "station_id": "7c23227b-155a-4c3c-8b23-d9f47a302402",
        "name": "PON004",
        "lat": 45.132203,
        "lon": 5.692929,
        "is_virtual_station": true,
        "capacity": 8
      },
      {
        "station_id": "149956f7-5c95-4207-b693-4df6c31cf519",
        "name": "GRE225",
        "lat": 45.18128,
        "lon": 5.72785,
        "is_virtual_station": true,
        "capacity": 12
      },
      {
        "station_id": "30ddccd2-b6d0-4ca8-a9ea-cbc1624fbd7e",
        "name": "SMH001",
        "lat": 45.1847,
        "lon": 5.77825,
        "is_virtual_station": true,
        "capacity": 8
      },
      {
        "station_id": "06872b0b-e237-49b5-9df0-0daca3637a42",
        "name": "ECH047",
        "lat": 45.150267,
        "lon": 5.717247,
        "is_virtual_station": true,
        "capacity": 8
      },
      {
        "station_id": "62b3495c-54e3-44df-91d1-1e0ea096cade",
        "name": "GRE023",
        "lat": 45.173774,
        "lon": 5.748522,
        "is_virtual_station": true,
        "capacity": 12
      },
      {
        "station_id": "c7985b2d-a5e9-4649-8bfe-d612bc4c9a78",
        "name": "SMH033",
        "lat": 45.178333,
        "lon": 5.769156,
        "is_virtual_station": true,
        "capacity": 8
      },
      {
        "station_id": "48b34a6f-57ba-431f-a599-03f56fdee83c",
        "name": "GIE005",
        "lat": 45.180059,
        "lon": 5.78385,
        "is_virtual_station": true,
        "capacity": 8
      },
      {
        "station_id": "f5b2a465-ddfd-43f4-b788-9722ae4e505d",
        "name": "GRE214",
        "lat": 45.18645,
        "lon": 5.72453,
        "is_virtual_station": true,
        "capacity": 12
      },
      {
        "station_id": "7637da0a-75fa-43ab-83a8-f9b371d0042f",
        "name": "GRE226",
        "lat": 45.188438,
        "lon": 5.727988,
        "is_virtual_station": true,
        "capacity": 12
      },
      {
        "station_id": "299e06aa-25d7-4424-8865-e47ff5eb85e5",
        "name": "SMH025",
        "lat": 45.181004,
        "lon": 5.754785,
        "is_virtual_station": true,
        "capacity": 8
      },
      {
        "station_id": "ec7bf82a-ea73-4e87-bbaa-8fa8b08575d2",
        "name": "ECH021",
        "lat": 45.145522,
        "lon": 5.725493,
        "is_virtual_station": true,
        "capacity": 8
      },
      {
        "station_id": "714eaf17-f74b-456a-8a20-889e1c781041",
        "name": "SEP018",
        "lat": 45.180038,
        "lon": 5.695539,
        "is_virtual_station": true,
        "capacity": 8
      },
      {
        "station_id": "4c0fa22e-3f29-4289-b0ca-8d4724f88c93",
        "name": "GRE298",
        "lat": 45.190103,
        "lon": 5.732341,
        "is_virtual_station": true,
        "capacity": 12
      },
      {
        "station_id": "c3ac8994-798a-45df-a64a-b9bdce5bd1fe",
        "name": "GRE200",
        "lat": 45.183474,
        "lon": 5.721575,
        "is_virtual_station": true,
        "capacity": 12
      },
      {
        "station_id": "061cf741-9f70-4373-a359-9cddb8d7b96d",
        "name": "MEY008",
        "lat": 45.2206,
        "lon": 5.79744,
        "is_virtual_station": true,
        "capacity": 8
      },
      {
        "station_id": "49e4bf0d-60d3-4a2a-964e-a1a90e68e611",
        "name": "GRE185",
        "lat": 45.18535,
        "lon": 5.71838,
        "is_virtual_station": true,
        "capacity": 12
      },
      {
        "station_id": "ca077f22-1688-420c-8659-2376c055dfc7",
        "name": "EYB001",
        "lat": 45.160596,
        "lon": 5.75283,
        "is_virtual_station": true,
        "capacity": 8
      },
      {
        "station_id": "481c85b8-5250-4cfb-98fd-2506a7f83a3b",
        "name": "GRE016",
        "lat": 45.177313,
        "lon": 5.736688,
        "is_virtual_station": true,
        "capacity": 12
      },
      {
        "station_id": "7029bcc7-b09b-48a9-bc3c-9af24dcb4873",
        "name": "ECH015",
        "lat": 45.1451,
        "lon": 5.70812,
        "is_virtual_station": true,
        "capacity": 8
      },
      {
        "station_id": "04f3599b-786e-40e9-b7e5-e855e3c96999",
        "name": "SMH041",
        "lat": 45.187416,
        "lon": 5.752158,
        "is_virtual_station": true,
        "capacity": 8
      },
      {
        "station_id": "e09a02cb-b6eb-4e2e-8819-d19c6abcf7a0",
        "name": "GRE181",
        "lat": 45.17587,
        "lon": 5.71767,
        "is_virtual_station": true,
        "capacity": 12
      },
      {
        "station_id": "7be8f33e-5864-421b-8926-abb5d023b234",
        "name": "GRE026",
        "lat": 45.17605,
        "lon": 5.734147,
        "is_virtual_station": true,
        "capacity": 12
      },
      {
        "station_id": "8214d98e-7937-42ff-9e5f-2cabd166f402",
        "name": "GRE040",
        "lat": 45.168736,
        "lon": 5.719361,
        "is_virtual_station": true,
        "capacity": 12
      },
      {
        "station_id": "187671b0-3069-4bdc-a222-5aea21970951",
        "name": "ECH012",
        "lat": 45.154699,
        "lon": 5.706172,
        "is_virtual_station": true,
        "capacity": 8
      },
      {
        "station_id": "d93692f4-2bba-42aa-8c95-7d1768f1ce41",
        "name": "GRE293",
        "lat": 45.1727,
        "lon": 5.7457,
        "is_virtual_station": true,
        "capacity": 12
      },
      {
        "station_id": "6d8325f0-65f5-4a9e-8d3b-3dde92b04c90",
        "name": "GRE107",
        "lat": 45.178798,
        "lon": 5.716109,
        "is_virtual_station": true,
        "capacity": 12
      },
      {
        "station_id": "55d7eef5-bc00-4573-86ee-32a8f8e1b0f5",
        "name": "GRE009",
        "lat": 45.174574,
        "lon": 5.73804,
        "is_virtual_station": true,
        "capacity": 12
      },
      {
        "station_id": "2f2349b5-bf97-4c2a-a07d-0bffa6ab873a",
        "name": "FON021",
        "lat": 45.188004,
        "lon": 5.689657,
        "is_virtual_station": true,
        "capacity": 8
      },
      {
        "station_id": "12906c42-5f18-447b-8c95-e3b617c4f279",
        "name": "GRE239",
        "lat": 45.18194,
        "lon": 5.73125,
        "is_virtual_station": true,
        "capacity": 12
      },
      {
        "station_id": "d559ce99-3485-4868-84ea-60f635657a4f",
        "name": "MON009",
        "lat": 45.224372,
        "lon": 5.819455,
        "is_virtual_station": true,
        "capacity": 8
      },
      {
        "station_id": "94bba877-37c4-4728-ab16-9dc00b867917",
        "name": "GRE219",
        "lat": 45.17564,
        "lon": 5.72605,
        "is_virtual_station": true,
        "capacity": 12
      },
      {
        "station_id": "2890d517-a24e-4550-8cd4-adb06b7f2a32",
        "name": "SEY003",
        "lat": 45.16184,
        "lon": 5.696731,
        "is_virtual_station": true,
        "capacity": 8
      },
      {
        "station_id": "534382b5-78cb-416b-af26-c2d130748f47",
        "name": "DUA025",
        "lat": 45.195037,
        "lon": 5.765319,
        "is_virtual_station": true,
        "capacity": 8
      },
      {
        "station_id": "03822daa-a3b5-4479-997e-09d099edb687",
        "name": "GRE222",
        "lat": 45.16799,
        "lon": 5.72709,
        "is_virtual_station": true,
        "capacity": 12
      },
      {
        "station_id": "c26110f4-3de6-4604-b94a-fca29db12c4a",
        "name": "LAT013",
        "lat": 45.200181,
        "lon": 5.75417,
        "is_virtual_station": true,
        "capacity": 8
      },
      {
        "station_id": "3b7d4e8b-da54-4aaf-9a60-029f66b69316",
        "name": "GRE020",
        "lat": 45.17981,
        "lon": 5.70818,
        "is_virtual_station": true,
        "capacity": 12
      },
      {
        "station_id": "5f8c5f56-fd39-4936-acd8-bc8993022966",
        "name": "EYB005",
        "lat": 45.161483,
        "lon": 5.743951,
        "is_virtual_station": true,
        "capacity": 8
      },
      {
        "station_id": "8fe5b095-1498-405e-9a6e-90ebf6595181",
        "name": "SMH047",
        "lat": 45.186005,
        "lon": 5.759777,
        "is_virtual_station": true,
        "capacity": 8
      },
      {
        "station_id": "fa7c0205-004e-4ade-9129-719c35312fb9",
        "name": "GRE224",
        "lat": 45.1594,
        "lon": 5.72777,
        "is_virtual_station": true,
        "capacity": 12
      },
      {
        "station_id": "1c59cbda-39e9-4614-9ccd-b589899832bd",
        "name": "FON020",
        "lat": 45.204123,
        "lon": 5.681514,
        "is_virtual_station": true,
        "capacity": 8
      },
      {
        "station_id": "966fe981-9b17-473f-a615-d19c09ca5bb9",
        "name": "GRE180",
        "lat": 45.196171,
        "lon": 5.717656,
        "is_virtual_station": true,
        "capacity": 12
      },
      {
        "station_id": "a521ff4c-1fc3-4be4-ba61-631ecddd7a2a",
        "name": "GRE071",
        "lat": 45.137928,
        "lon": 5.70261,
        "is_virtual_station": true,
        "capacity": 12
      },
      {
        "station_id": "23d0fd2c-069a-47b6-ad56-50719185f1e2",
        "name": "GRE241",
        "lat": 45.18799,
        "lon": 5.73155,
        "is_virtual_station": true,
        "capacity": 12
      },
      {
        "station_id": "f5e063e1-ba6a-43c3-a4cc-95f9c348c944",
        "name": "SAS014",
        "lat": 45.213594,
        "lon": 5.652592,
        "is_virtual_station": true,
        "capacity": 8
      },
      {
        "station_id": "fd2507be-dabd-4ac0-8db0-eb481d6a5d6a",
        "name": "GRE044",
        "lat": 45.187314,
        "lon": 5.709553,
        "is_virtual_station": true,
        "capacity": 12
      },
      {
        "station_id": "f81f291f-aeb6-4cf7-8cf1-ab3d3168ed11",
        "name": "GRE188",
        "lat": 45.190646,
        "lon": 5.719718,
        "is_virtual_station": true,
        "capacity": 12
      },
      {
        "station_id": "c0b63b3d-3765-421c-8ef9-588afa48a21d",
        "name": "COR010",
        "lat": 45.216585,
        "lon": 5.753667,
        "is_virtual_station": true,
        "capacity": 8
      },
      {
        "station_id": "99abc856-92f6-41c9-9b3b-ebba4bc7105f",
        "name": "DUA014",
        "lat": 45.188041,
        "lon": 5.772815,
        "is_virtual_station": true,
        "capacity": 8
      },
      {
        "station_id": "e7b1923f-f538-4c9f-81f4-3bb445f87880",
        "name": "FON004",
        "lat": 45.195409,
        "lon": 5.69428,
        "is_virtual_station": true,
        "capacity": 8
      },
      {
        "station_id": "8efb37d7-be4d-4bed-acba-a73a205671b0",
        "name": "GRE117",
        "lat": 45.19809,
        "lon": 5.7184,
        "is_virtual_station": true,
        "capacity": 12
      },
      {
        "station_id": "8b8828a1-1e49-4f86-bdd8-620e3f96c963",
        "name": "FON019",
        "lat": 45.196415,
        "lon": 5.676968,
        "is_virtual_station": true,
        "capacity": 8
      },
      {
        "station_id": "22343714-b7ce-4058-8974-7f84d1d1b2cb",
        "name": "GRE277",
        "lat": 45.19273,
        "lon": 5.73966,
        "is_virtual_station": true,
        "capacity": 12
      },
      {
        "station_id": "7e2cdf37-4da3-4562-a4e8-c76c4363baa0",
        "name": "DUA024",
        "lat": 45.195011,
        "lon": 5.767339,
        "is_virtual_station": true,
        "capacity": 8
      },
      {
        "station_id": "44028ab6-fedd-47d4-9379-4b3c4ed250f7",
        "name": "SAS011",
        "lat": 45.206114,
        "lon": 5.668004,
        "is_virtual_station": true,
        "capacity": 8
      },
      {
        "station_id": "c0d9e20b-7c2c-4ff3-a83a-daef8de8df44",
        "name": "MEY017",
        "lat": 45.20887,
        "lon": 5.76297,
        "is_virtual_station": true,
        "capacity": 8
      },
      {
        "station_id": "23171096-2fd8-45a6-a763-2e4fdb1841b8",
        "name": "SMH028",
        "lat": 45.173244,
        "lon": 5.769279,
        "is_virtual_station": true,
        "capacity": 8
      },
      {
        "station_id": "0198ed33-9fc8-4b2d-8813-3ec9f3a588c4",
        "name": "MEY019",
        "lat": 45.20997,
        "lon": 5.783892,
        "is_virtual_station": true,
        "capacity": 8
      },
      {
        "station_id": "cb827208-c21c-4a44-be7d-729013f8a32e",
        "name": "GRE077",
        "lat": 45.181949,
        "lon": 5.705976,
        "is_virtual_station": true,
        "capacity": 12
      },
      {
        "station_id": "bd3b4a9c-7c9d-4b30-9613-d259b57ad70b",
        "name": "FON012",
        "lat": 45.195871,
        "lon": 5.690591,
        "is_virtual_station": true,
        "capacity": 8
      },
      {
        "station_id": "aa040fdb-726a-4b26-9717-aa27f5057bd9",
        "name": "GRE164",
        "lat": 45.170057,
        "lon": 5.712264,
        "is_virtual_station": true,
        "capacity": 12
      },
      {
        "station_id": "b7e5b0d8-c68d-4030-b8be-30f6ffb553c9",
        "name": "LAT001",
        "lat": 45.20361,
        "lon": 5.736347,
        "is_virtual_station": true,
        "capacity": 8
      },
      {
        "station_id": "cac1a2ca-1cde-4d80-a6d4-bab1d10e3c95",
        "name": "SMH026",
        "lat": 45.180916,
        "lon": 5.749977,
        "is_virtual_station": true,
        "capacity": 8
      },
      {
        "station_id": "8eb6bf9f-169f-49b5-b9cf-7899e7514c88",
        "name": "GRE119",
        "lat": 45.159464,
        "lon": 5.736899,
        "is_virtual_station": true,
        "capacity": 12
      },
      {
        "station_id": "ba885f5c-bd37-4d1b-bcf6-e7d15e6afeae",
        "name": "GRE063",
        "lat": 45.186329,
        "lon": 5.708115,
        "is_virtual_station": true,
        "capacity": 12
      },
      {
        "station_id": "4f5e9378-e6bc-440d-ba17-9cc0a882dc1f",
        "name": "GRE190",
        "lat": 45.19205,
        "lon": 5.71963,
        "is_virtual_station": true,
        "capacity": 12
      },
      {
        "station_id": "366d7263-58d4-4fdd-b285-b8d434c5f731",
        "name": "PON019",
        "lat": 45.122717,
        "lon": 5.697254,
        "is_virtual_station": true,
        "capacity": 8
      },
      {
        "station_id": "8f106af1-ee13-496a-8c55-7f18dca91d50",
        "name": "GRE113",
        "lat": 45.18919,
        "lon": 5.71586,
        "is_virtual_station": true,
        "capacity": 12
      },
      {
        "station_id": "e1b2c430-a494-4bad-9db5-0d2dfe0e530a",
        "name": "SMV014",
        "lat": 45.21292,
        "lon": 5.69269,
        "is_virtual_station": true,
        "capacity": 8
      },
      {
        "station_id": "3fdc9176-eaa5-4a7f-904a-b2be987928ad",
        "name": "SMV004",
        "lat": 45.215254,
        "lon": 5.697623,
        "is_virtual_station": true,
        "capacity": 8
      },
      {
        "station_id": "18cddd44-6bfb-40ae-bc11-644ef2e45aa5",
        "name": "MON013",
        "lat": 45.226289,
        "lon": 5.802094,
        "is_virtual_station": true,
        "capacity": 8
      },
      {
        "station_id": "18f8a355-8814-42d9-ae3d-d04daa79473c",
        "name": "GRE203",
        "lat": 45.18089,
        "lon": 5.72214,
        "is_virtual_station": true,
        "capacity": 12
      },
      {
        "station_id": "e568710c-c062-48a4-9619-55a488816639",
        "name": "ECH014",
        "lat": 45.14494,
        "lon": 5.70071,
        "is_virtual_station": true,
        "capacity": 8
      },
      {
        "station_id": "9fc63f00-c3ee-48f4-b1ad-33fcb5e80ca6",
        "name": "GRE161",
        "lat": 45.18373,
        "lon": 5.71168,
        "is_virtual_station": true,
        "capacity": 12
      },
      {
        "station_id": "e44926d6-7363-482e-8d31-dfd68d7fd0f0",
        "name": "GRE068",
        "lat": 45.182745,
        "lon": 5.709069,
        "is_virtual_station": true,
        "capacity": 12
      },
      {
        "station_id": "4744fe5f-96f5-416f-8e0f-6452317029e8",
        "name": "FON001",
        "lat": 45.199926,
        "lon": 5.69164,
        "is_virtual_station": true,
        "capacity": 8
      },
      {
        "station_id": "fc4c20f8-80c9-4f85-a9de-c4b49f39a6c4",
        "name": "MEY010",
        "lat": 45.20371,
        "lon": 5.76287,
        "is_virtual_station": true,
        "capacity": 8
      },
      {
        "station_id": "55b1c619-15b8-4228-b65f-d04442ef54f2",
        "name": "GRE151",
        "lat": 45.19746,
        "lon": 5.71002,
        "is_virtual_station": true,
        "capacity": 12
      },
      {
        "station_id": "632d92ca-c311-4b75-a16c-6c53d6ac6cdf",
        "name": "GRE084",
        "lat": 45.182276,
        "lon": 5.725893,
        "is_virtual_station": true,
        "capacity": 12
      },
      {
        "station_id": "59c98356-5b0c-4e30-b935-1059270c08df",
        "name": "FON016",
        "lat": 45.194575,
        "lon": 5.687198,
        "is_virtual_station": true,
        "capacity": 8
      },
      {
        "station_id": "591a9330-753d-4874-ab84-3d0b8d7a059d",
        "name": "GIE003",
        "lat": 45.182373,
        "lon": 5.792109,
        "is_virtual_station": true,
        "capacity": 8
      },
      {
        "station_id": "c71257d9-ba13-4d89-81a5-10fc3382a436",
        "name": "GRE242",
        "lat": 45.17372,
        "lon": 5.73165,
        "is_virtual_station": true,
        "capacity": 12
      },
      {
        "station_id": "32363ef8-18d5-4de8-825f-aee0163bb7ce",
        "name": "GRE272",
        "lat": 45.18376,
        "lon": 5.738518,
        "is_virtual_station": true,
        "capacity": 12
      },
      {
        "station_id": "94e58d6a-8623-493f-b28e-68b7c7ab81a0",
        "name": "SAS008",
        "lat": 45.213964,
        "lon": 5.663502,
        "is_virtual_station": true,
        "capacity": 8
      },
      {
        "station_id": "f63734b3-19b7-470c-aada-b182eb9e4469",
        "name": "SMV010",
        "lat": 45.203933,
        "lon": 5.716199,
        "is_virtual_station": true,
        "capacity": 8
      },
      {
        "station_id": "3b9b06d8-3bac-44a6-8b1a-fc9fda38e862",
        "name": "SAS010",
        "lat": 45.205073,
        "lon": 5.669715,
        "is_virtual_station": true,
        "capacity": 8
      },
      {
        "station_id": "ff4a2529-6f94-4efb-a2b3-ae063762238f",
        "name": "SMH034",
        "lat": 45.174974,
        "lon": 5.762841,
        "is_virtual_station": true,
        "capacity": 8
      },
      {
        "station_id": "985b4e35-5ad9-43d2-aa81-ae24f7cfb9ea",
        "name": "ECH061",
        "lat": 45.143326,
        "lon": 5.737768,
        "is_virtual_station": true,
        "capacity": 8
      },
      {
        "station_id": "2a74f2a0-4871-4fdf-9f89-441bfe3b83b8",
        "name": "COR011",
        "lat": 45.220178,
        "lon": 5.762922,
        "is_virtual_station": true,
        "capacity": 8
      },
      {
        "station_id": "133a3e00-7249-499b-b067-ad3ed51aa317",
        "name": "EYB015",
        "lat": 45.14713,
        "lon": 5.76174,
        "is_virtual_station": true,
        "capacity": 8
      },
      {
        "station_id": "ab51b0fe-7d3a-4bd3-a284-2b6059e15d37",
        "name": "GRE073",
        "lat": 45.189619,
        "lon": 5.733984,
        "is_virtual_station": true,
        "capacity": 12
      },
      {
        "station_id": "689356bd-b39f-4c84-9ea6-71ad888bf1a9",
        "name": "SMH007",
        "lat": 45.178275,
        "lon": 5.758796,
        "is_virtual_station": true,
        "capacity": 8
      },
      {
        "station_id": "c55fc304-86d1-463d-8096-e27a32bd7e01",
        "name": "SEG023",
        "lat": 45.220418,
        "lon": 5.691847,
        "is_virtual_station": true,
        "capacity": 8
      },
      {
        "station_id": "4f361b8f-ba2f-4303-b291-3d462a860bfa",
        "name": "SEG005",
        "lat": 45.233627,
        "lon": 5.678211,
        "is_virtual_station": true,
        "capacity": 8
      },
      {
        "station_id": "7d6c4839-963a-4db3-a90f-0237e7dd03c3",
        "name": "GRE301",
        "lat": 45.192695,
        "lon": 5.724651,
        "is_virtual_station": true,
        "capacity": 12
      },
      {
        "station_id": "fecac7e7-8310-4c8d-b221-1f0414db65ce",
        "name": "ECH002",
        "lat": 45.14233,
        "lon": 5.72115,
        "is_virtual_station": true,
        "capacity": 8
      },
      {
        "station_id": "5f756bbc-1520-481d-a89f-b819a529f97d",
        "name": "DUA006",
        "lat": 45.191562,
        "lon": 5.760548,
        "is_virtual_station": true,
        "capacity": 8
      },
      {
        "station_id": "270ccb09-2d9c-4ea9-b85e-c14124e2fae6",
        "name": "DUA029",
        "lat": 45.19595,
        "lon": 5.77481,
        "is_virtual_station": true,
        "capacity": 8
      },
      {
        "station_id": "735709ea-e7b3-4bf3-bdbe-5ec3e6440a06",
        "name": "SEG012",
        "lat": 45.227119,
        "lon": 5.673149,
        "is_virtual_station": true,
        "capacity": 8
      },
      {
        "station_id": "97c77988-8947-4152-bfb1-bf61364d6011",
        "name": "LAT016",
        "lat": 45.20994,
        "lon": 5.7406,
        "is_virtual_station": true,
        "capacity": 8
      },
      {
        "station_id": "b454c8f5-7a6c-428b-9116-d8197f7a4c67",
        "name": "GRE126",
        "lat": 45.20434,
        "lon": 5.70138,
        "is_virtual_station": true,
        "capacity": 12
      },
      {
        "station_id": "d10d12ad-d1c6-4136-9a0a-36a97b28e951",
        "name": "SEY005",
        "lat": 45.165857,
        "lon": 5.69749,
        "is_virtual_station": true,
        "capacity": 8
      },
      {
        "station_id": "09bb122b-42d9-4bc7-9a32-afbfbbc6f4f6",
        "name": "GRE136",
        "lat": 45.16675,
        "lon": 5.70593,
        "is_virtual_station": true,
        "capacity": 12
      },
      {
        "station_id": "a3893ab4-906a-4142-9301-cc02e3653d82",
        "name": "FON024",
        "lat": 45.197088,
        "lon": 5.693569,
        "is_virtual_station": true,
        "capacity": 8
      },
      {
        "station_id": "c21f6fea-bcc0-4d56-9f01-187ef0e82d6a",
        "name": "GRE257",
        "lat": 45.18663,
        "lon": 5.73482,
        "is_virtual_station": true,
        "capacity": 12
      },
      {
        "station_id": "08accc74-48dd-43d3-820b-debdc5820a52",
        "name": "MON007",
        "lat": 45.22159,
        "lon": 5.812707,
        "is_virtual_station": true,
        "capacity": 8
      },
      {
        "station_id": "c4ffd8f9-294f-4a77-a0de-21622fcfc75b",
        "name": "GRE218",
        "lat": 45.1852,
        "lon": 5.72541,
        "is_virtual_station": true,
        "capacity": 12
      },
      {
        "station_id": "25868dc8-dcc9-4dcb-a792-85078416c10b",
        "name": "GRE123",
        "lat": 45.188426,
        "lon": 5.736115,
        "is_virtual_station": true,
        "capacity": 12
      },
      {
        "station_id": "bad74263-c6c9-4152-b618-4512a3019841",
        "name": "GRE033",
        "lat": 45.164551,
        "lon": 5.723777,
        "is_virtual_station": true,
        "capacity": 12
      },
      {
        "station_id": "0f0531f9-3ffe-4678-8023-aa381e3359d0",
        "name": "GRE110",
        "lat": 45.190017,
        "lon": 5.715555,
        "is_virtual_station": true,
        "capacity": 12
      },
      {
        "station_id": "d845e05c-60f1-4423-9c83-b779a8714022",
        "name": "GRE036",
        "lat": 45.178253,
        "lon": 5.727527,
        "is_virtual_station": true,
        "capacity": 12
      },
      {
        "station_id": "1e023a8a-78c5-41d6-91dc-550fcffaf2cb",
        "name": "SMH048",
        "lat": 45.186281,
        "lon": 5.755029,
        "is_virtual_station": true,
        "capacity": 8
      },
      {
        "station_id": "b5d14ab4-f1da-4527-a1af-36f22ecf7228",
        "name": "ECH038",
        "lat": 45.147979,
        "lon": 5.693099,
        "is_virtual_station": true,
        "capacity": 8
      },
      {
        "station_id": "220ef704-3e4b-46f8-9244-ec220dbae230",
        "name": "GRE213",
        "lat": 45.15965,
        "lon": 5.7245,
        "is_virtual_station": true,
        "capacity": 12
      },
      {
        "station_id": "273fc4d1-c13d-42f8-8685-fb4f46bfaa74",
        "name": "GRE030",
        "lat": 45.173819,
        "lon": 5.745455,
        "is_virtual_station": true,
        "capacity": 12
      },
      {
        "station_id": "d0529287-fe09-4645-b0a7-d985e2bbf687",
        "name": "GRE260",
        "lat": 45.18059,
        "lon": 5.73522,
        "is_virtual_station": true,
        "capacity": 12
      },
      {
        "station_id": "c7198d79-8447-40df-bd04-2fb738d449b8",
        "name": "SMV003",
        "lat": 45.216939,
        "lon": 5.693213,
        "is_virtual_station": true,
        "capacity": 8
      },
      {
        "station_id": "6ea6f8dd-fec5-4969-b825-cb7417b90253",
        "name": "GRE085",
        "lat": 45.18118,
        "lon": 5.731924,
        "is_virtual_station": true,
        "capacity": 12
      },
      {
        "station_id": "02e801d7-229a-41ed-8526-fc7bded932b8",
        "name": "ECH059",
        "lat": 45.143641,
        "lon": 5.7326,
        "is_virtual_station": true,
        "capacity": 8
      },
      {
        "station_id": "57e3d55f-1d73-465b-9960-aa38c3dab8e3",
        "name": "SEY010",
        "lat": 45.167207,
        "lon": 5.696705,
        "is_virtual_station": true,
        "capacity": 8
      },
      {
        "station_id": "cacfbe06-e7a7-4297-b4be-071e74d0dd9a",
        "name": "GRE182",
        "lat": 45.18792,
        "lon": 5.7177,
        "is_virtual_station": true,
        "capacity": 12
      },
      {
        "station_id": "c0d07142-2634-4078-8bf0-8b999862bbe0",
        "name": "SMH012",
        "lat": 45.183582,
        "lon": 5.754321,
        "is_virtual_station": true,
        "capacity": 8
      },
      {
        "station_id": "af21e8e1-00ae-4168-868f-ec5fe21885af",
        "name": "GRE140",
        "lat": 45.18743,
        "lon": 5.70759,
        "is_virtual_station": true,
        "capacity": 12
      },
      {
        "station_id": "5d55dad0-73aa-464f-b741-2e9013445d02",
        "name": "DUA032",
        "lat": 45.192502,
        "lon": 5.754704,
        "is_virtual_station": true,
        "capacity": 8
      },
      {
        "station_id": "62e3f47b-36c2-467b-82ba-a528f07b3cf8",
        "name": "PON008",
        "lat": 45.123205,
        "lon": 5.698464,
        "is_virtual_station": true,
        "capacity": 8
      },
      {
        "station_id": "ea136c95-41e7-454a-aff0-81d4c993f5ad",
        "name": "GRE025",
        "lat": 45.17645,
        "lon": 5.73974,
        "is_virtual_station": true,
        "capacity": 12
      },
      {
        "station_id": "2d72c711-de80-4318-88e9-a6904011850d",
        "name": "GIE002",
        "lat": 45.184993,
        "lon": 5.78534,
        "is_virtual_station": true,
        "capacity": 8
      },
      {
        "station_id": "e577463d-8294-489a-91fb-477b93b0df5a",
        "name": "GRE259",
        "lat": 45.19595,
        "lon": 5.7352,
        "is_virtual_station": true,
        "capacity": 12
      },
      {
        "station_id": "f41d7d14-32a6-45a0-ba45-ad0030f87c07",
        "name": "SEG011",
        "lat": 45.2229,
        "lon": 5.684313,
        "is_virtual_station": true,
        "capacity": 8
      },
      {
        "station_id": "4ee33e02-cdf1-4e6d-bae5-808b9b28a9e7",
        "name": "ECH062",
        "lat": 45.142511,
        "lon": 5.725804,
        "is_virtual_station": true,
        "capacity": 8
      },
      {
        "station_id": "3c19b38e-67a3-42a7-ba1f-b035cb011531",
        "name": "SMH016",
        "lat": 45.184179,
        "lon": 5.757328,
        "is_virtual_station": true,
        "capacity": 8
      },
      {
        "station_id": "9ef4f2df-4e51-4b1d-a202-5ea47e384bec",
        "name": "GRE299",
        "lat": 45.189915,
        "lon": 5.723899,
        "is_virtual_station": true,
        "capacity": 12
      },
      {
        "station_id": "90047373-3011-4df5-80f1-cf4f3a028bac",
        "name": "GRE082",
        "lat": 45.189316,
        "lon": 5.730471,
        "is_virtual_station": true,
        "capacity": 12
      },
      {
        "station_id": "441e9d19-6c69-4eb6-acc0-0a6212a9c4e9",
        "name": "GRE139",
        "lat": 45.18595,
        "lon": 5.70692,
        "is_virtual_station": true,
        "capacity": 12
      },
      {
        "station_id": "006c66d2-4be1-4307-8604-0a4d50f09c0e",
        "name": "GRE287",
        "lat": 45.185258,
        "lon": 5.743417,
        "is_virtual_station": true,
        "capacity": 12
      },
      {
        "station_id": "1550e970-f32f-4fe3-9458-987ca8081cbc",
        "name": "GRE112",
        "lat": 45.18989,
        "lon": 5.71326,
        "is_virtual_station": true,
        "capacity": 12
      },
      {
        "station_id": "d1b276de-b30d-44d0-8c10-44b8b1d6f187",
        "name": "ECH024",
        "lat": 45.145834,
        "lon": 5.720116,
        "is_virtual_station": true,
        "capacity": 8
      },
      {
        "station_id": "8a0771fe-48cf-45fa-87b5-276c8e453ecc",
        "name": "LAT007",
        "lat": 45.20156,
        "lon": 5.741762,
        "is_virtual_station": true,
        "capacity": 8
      },
      {
        "station_id": "5a64ff47-7695-4d25-8e61-36602a4e3406",
        "name": "GRE054",
        "lat": 45.189449,
        "lon": 5.711309,
        "is_virtual_station": true,
        "capacity": 12
      },
      {
        "station_id": "a1d3ec66-147c-45c5-8260-9897afee51d6",
        "name": "GRE056",
        "lat": 45.190836,
        "lon": 5.712088,
        "is_virtual_station": true,
        "capacity": 12
      },
      {
        "station_id": "69eec2e2-2b83-46c6-a6ef-7a8bfa5e99bf",
        "name": "SEP001",
        "lat": 45.184738,
        "lon": 5.697191,
        "is_virtual_station": true,
        "capacity": 8
      },
      {
        "station_id": "7a4921b1-04de-4440-9075-de04870d6025",
        "name": "GRE135",
        "lat": 45.18473,
        "lon": 5.7059,
        "is_virtual_station": true,
        "capacity": 12
      },
      {
        "station_id": "0cc516a3-e476-4c24-add0-4a9bcda90580",
        "name": "PON016",
        "lat": 45.140056,
        "lon": 5.698682,
        "is_virtual_station": true,
        "capacity": 8
      },
      {
        "station_id": "4a5f352e-eb5d-4b1b-8b3a-1d5b9c84cb2a",
        "name": "GRE091",
        "lat": 45.181097,
        "lon": 5.712405,
        "is_virtual_station": true,
        "capacity": 12
      },
      {
        "station_id": "df82d96f-9c3e-47e2-ac15-ab103e0515b0",
        "name": "ECH060",
        "lat": 45.144518,
        "lon": 5.721635,
        "is_virtual_station": true,
        "capacity": 8
      },
      {
        "station_id": "a07b369e-7362-46e4-b076-25312e14a7cf",
        "name": "PON005",
        "lat": 45.135786,
        "lon": 5.701608,
        "is_virtual_station": true,
        "capacity": 8
      },
      {
        "station_id": "5437f784-4272-4573-8b88-471f1c534b82",
        "name": "GRE124",
        "lat": 45.207198,
        "lon": 5.697728,
        "is_virtual_station": true,
        "capacity": 12
      },
      {
        "station_id": "eaf00612-3920-4a4d-8735-b65c4580fd17",
        "name": "GRE099",
        "lat": 45.178625,
        "lon": 5.713852,
        "is_virtual_station": true,
        "capacity": 12
      },
      {
        "station_id": "ea5e26ff-1ce5-4bf6-be65-5676ae6e8945",
        "name": "GRE101",
        "lat": 45.179943,
        "lon": 5.74874,
        "is_virtual_station": true,
        "capacity": 12
      },
      {
        "station_id": "1800140c-4724-4e7f-a76f-fcc4c8425d67",
        "name": "GRE121",
        "lat": 45.191372,
        "lon": 5.716588,
        "is_virtual_station": true,
        "capacity": 12
      },
      {
        "station_id": "19d06cc0-0b17-4bb5-8f93-9088799f75ac",
        "name": "GRE183",
        "lat": 45.183619,
        "lon": 5.717736,
        "is_virtual_station": true,
        "capacity": 12
      },
      {
        "station_id": "043b40e0-9c3f-4731-84c9-f75b341bcacc",
        "name": "FON013",
        "lat": 45.199856,
        "lon": 5.688983,
        "is_virtual_station": true,
        "capacity": 8
      },
      {
        "station_id": "bb1b8665-b3ea-4051-8e5b-0a871115f95f",
        "name": "FON014",
        "lat": 45.185704,
        "lon": 5.690861,
        "is_virtual_station": true,
        "capacity": 8
      },
      {
        "station_id": "4608bb52-437c-4295-a35c-469fbb612892",
        "name": "MEY005",
        "lat": 45.20617,
        "lon": 5.77277,
        "is_virtual_station": true,
        "capacity": 8
      },
      {
        "station_id": "06da7230-a5fb-4667-96ae-fdbf789c9eb1",
        "name": "GRE270",
        "lat": 45.17924,
        "lon": 5.73841,
        "is_virtual_station": true,
        "capacity": 12
      },
      {
        "station_id": "20e164ef-65de-4b18-bd58-887b98930f8b",
        "name": "MEY024",
        "lat": 45.207244,
        "lon": 5.784799,
        "is_virtual_station": true,
        "capacity": 8
      },
      {
        "station_id": "ef10aeda-0530-49e0-b545-c05a1f9ef35e",
        "name": "EYB006",
        "lat": 45.15661,
        "lon": 5.73917,
        "is_virtual_station": true,
        "capacity": 8
      },
      {
        "station_id": "00fea2e5-d167-4ed7-966f-feb6f2d7363e",
        "name": "DUA009",
        "lat": 45.190728,
        "lon": 5.761953,
        "is_virtual_station": true,
        "capacity": 8
      },
      {
        "station_id": "63841be3-cc4d-4c0d-a0bc-9c03ab63cc30",
        "name": "GRE240",
        "lat": 45.178278,
        "lon": 5.731496,
        "is_virtual_station": true,
        "capacity": 12
      },
      {
        "station_id": "d19cf439-3fa0-4d57-9c49-d8366f5f4cb7",
        "name": "GRE039",
        "lat": 45.170846,
        "lon": 5.720828,
        "is_virtual_station": true,
        "capacity": 12
      },
      {
        "station_id": "baeed9ef-f8eb-4c70-848f-13f55a88d572",
        "name": "GRE210",
        "lat": 45.160937,
        "lon": 5.723952,
        "is_virtual_station": true,
        "capacity": 12
      },
      {
        "station_id": "18cd2eb9-f53b-4ec7-a86d-2db21e386c41",
        "name": "COR004",
        "lat": 45.212113,
        "lon": 5.757951,
        "is_virtual_station": true,
        "capacity": 8
      },
      {
        "station_id": "b2455c93-3f49-4495-8d52-3c6928bedca5",
        "name": "MEY004",
        "lat": 45.20998,
        "lon": 5.76716,
        "is_virtual_station": true,
        "capacity": 8
      },
      {
        "station_id": "1003f6da-2f20-4490-b852-a4ef2a807f76",
        "name": "MEY027",
        "lat": 45.207611,
        "lon": 5.789106,
        "is_virtual_station": true,
        "capacity": 8
      },
      {
        "station_id": "f4381ab4-28b2-4f15-bfb1-e79ab4ee1dcc",
        "name": "MON012",
        "lat": 45.231961,
        "lon": 5.820898,
        "is_virtual_station": true,
        "capacity": 8
      },
      {
        "station_id": "b855a6a4-3448-4e42-b89e-ed24a1f87676",
        "name": "GRE308",
        "lat": 45.195222,
        "lon": 5.724227,
        "is_virtual_station": true,
        "capacity": 12
      },
      {
        "station_id": "e2d72f45-6e1a-4aeb-85d8-e15dd0711d03",
        "name": "ECH030",
        "lat": 45.151282,
        "lon": 5.709002,
        "is_virtual_station": true,
        "capacity": 8
      },
      {
        "station_id": "81e8298c-91b2-4ed9-ad3d-f03be516b64d",
        "name": "GRE125",
        "lat": 45.20435,
        "lon": 5.69788,
        "is_virtual_station": true,
        "capacity": 12
      },
      {
        "station_id": "3ad86677-f57c-4d55-8688-3eb4041b387d",
        "name": "GRE249",
        "lat": 45.18884,
        "lon": 5.73314,
        "is_virtual_station": true,
        "capacity": 12
      },
      {
        "station_id": "11f59386-228f-43dc-8872-d92afdcd9f4c",
        "name": "GRE187",
        "lat": 45.16989,
        "lon": 5.7186,
        "is_virtual_station": true,
        "capacity": 12
      },
      {
        "station_id": "70ed9195-1b83-4636-ab1c-b5414592459c",
        "name": "GRE122",
        "lat": 45.191243,
        "lon": 5.716508,
        "is_virtual_station": true,
        "capacity": 12
      },
      {
        "station_id": "1339c886-89de-4d56-8a84-71ee399bbbb7",
        "name": "MEY026",
        "lat": 45.211816,
        "lon": 5.788658,
        "is_virtual_station": true,
        "capacity": 8
      },
      {
        "station_id": "8b548b9f-b959-4b60-b781-985bbc941bea",
        "name": "ECH056",
        "lat": 45.153607,
        "lon": 5.70057,
        "is_virtual_station": true,
        "capacity": 8
      },
      {
        "station_id": "6dcaae38-f268-482d-ac04-b1464c70ed8f",
        "name": "FON026",
        "lat": 45.197496,
        "lon": 5.671687,
        "is_virtual_station": true,
        "capacity": 8
      },
      {
        "station_id": "f7c07630-f06c-41b6-ae82-66d1ea6f0d68",
        "name": "GRE156",
        "lat": 45.194555,
        "lon": 5.710722,
        "is_virtual_station": true,
        "capacity": 12
      },
      {
        "station_id": "4ac729f4-482f-4e28-b0a1-6e347f23899a",
        "name": "DUA011",
        "lat": 45.191356,
        "lon": 5.766606,
        "is_virtual_station": true,
        "capacity": 8
      },
      {
        "station_id": "f49f51b3-56bb-45f8-97e2-a7b3c37f8c2f",
        "name": "GRE278",
        "lat": 45.19985,
        "lon": 5.73998,
        "is_virtual_station": true,
        "capacity": 12
      },
      {
        "station_id": "d39024da-f964-4fb1-a904-01dca80fcb05",
        "name": "GRE275",
        "lat": 45.19162,
        "lon": 5.73923,
        "is_virtual_station": true,
        "capacity": 12
      },
      {
        "station_id": "633ac669-cb5e-412b-9dbc-543f0a6e50ba",
        "name": "SEY020",
        "lat": 45.166919,
        "lon": 5.694076,
        "is_virtual_station": true,
        "capacity": 8
      },
      {
        "station_id": "c7c0c586-7fe3-4687-b006-4433a0d512ed",
        "name": "SMH039",
        "lat": 45.178558,
        "lon": 5.774262,
        "is_virtual_station": true,
        "capacity": 8
      },
      {
        "station_id": "6fa70f63-0475-4e28-894a-d73081c8df0e",
        "name": "MEY028",
        "lat": 45.211585,
        "lon": 5.791426,
        "is_virtual_station": true,
        "capacity": 8
      },
      {
        "station_id": "4ad802b0-225c-4a5f-827f-94acaa95ffb7",
        "name": "ECH040",
        "lat": 45.145514,
        "lon": 5.702984,
        "is_virtual_station": true,
        "capacity": 8
      },
      {
        "station_id": "19d7c784-6da9-4a47-86dd-cddee77a0528",
        "name": "PON012",
        "lat": 45.130225,
        "lon": 5.699759,
        "is_virtual_station": true,
        "capacity": 8
      },
      {
        "station_id": "a26f91e6-f056-40ed-b7eb-168438d71d57",
        "name": "EYB012",
        "lat": 45.144667,
        "lon": 5.741761,
        "is_virtual_station": true,
        "capacity": 8
      },
      {
        "station_id": "d3ccea5a-88ed-403e-9a09-303604ab0b73",
        "name": "SEP012",
        "lat": 45.173192,
        "lon": 5.687807,
        "is_virtual_station": true,
        "capacity": 8
      },