{
  "last_updated": 1772032734,
  "ttl": 300,
  "version": "2.3",
  "data": {
    "stations": [
      {
        "station_id": "1",
        "name": "SILO EST",
        "lat": 45.19234,
        "lon": 5.71411,
        "address": "GRENOBLE",
        "capacity": 0
      },
      {
        "station_id": "2",
        "name": "SILO OUEST",
        "lat": 45.19166,
        "lon": 5.7136,
        "address": "GRENOBLE",
        "capacity": 0
      },
      {
        "station_id": "3",
        "name": "ESPLANADE P+R",
        "lat": 45.19883,
        "lon": 5.71751,
        "address": "GRENOBLE",
        "capacity": 0
      },
      {
        "station_id": "4",
        "name": "CATANE P+R",
        "lat": 45.18051,
        "lon": 5.7049,
        "address": "GRENOBLE",
        "capacity": 0
      },
      {
        "station_id": "5",
        "name": "ETOILE",
        "lat": 45.13776,
        "lon": 5.70353,
        "address": "LE PONT-DE-CLAIX",
        "capacity": 0
      },
      {
        "station_id": "6",
        "name": "GARE ECHIROLLES",
        "lat": 45.15279,
        "lon": 5.71905,
        "address": "ÉCHIROLLES",
        "capacity": 0
      },
      {
        "station_id": "7",
        "name": "GRAND SABLON P+R",
        "lat": 45.19872,
        "lon": 5.75012,
        "address": "LA TRONCHE",
        "capacity": 0
      },
      {
        "station_id": "8",
        "name": "GIERES 1 - GARE",
        "lat": 45.18504,
        "lon": 5.7853,
        "address": "GIÈRES",
        "capacity": 0
      },
      {
        "station_id": "9",
        "name": "GIERES 2 - TRAM",
        "lat": 45.18574,
        "lon": 5.7849,
        "address": "GIÈRES",
        "capacity": 0
      },
      {
        "station_id": "11",
        "name": "CITE INTERNATIONALE",
        "lat": 45.19491,
        "lon": 5.71093,
        "address": "GRENOBLE",
        "capacity": 0
      },
      {
        "station_id": "12",
        "name": "ALPEXPO",
        "lat": 45.15679,
        "lon": 5.73416,
        "address": "GRENOBLE",
        "capacity": 0
      },
      {
        "station_id": "13",
        "name": "LA POYA",
        "lat": 45.19736,
        "lon": 5.67172,
        "address": "FONTAINE",
        "capacity": 0
      },
      {
        "station_id": "14",
        "name": "STADE GUETAT",
        "lat": 45.17573,
        "lon": 5.68761,
        "address": "SEYSSINET-PARISET",
        "capacity": 0
      },
      {
        "station_id": "15",
        "name": "PETITE TRONCHE",
        "lat": 45.20141,
        "lon": 5.73403,
        "address": "GRENOBLE",
        "capacity": 0
      },
      {
        "station_id": "16",
        "name": "CHRONODRIVE",
        "lat": 45.17652,
        "lon": 5.68711,
        "address": "SEYSSINET-PARISET",
        "capacity": 0
      },
      {
        "station_id": "17",
        "name": "SEYSSINET P+R",
        "lat": 45.17968,
        "lon": 5.69579,
        "address": "SEYSSINET-PARISET",
        "capacity": 0
      },
      {
        "station_id": "18",
        "name": "PLAINE DES SPORTS",
        "lat": 45.18794,
        "lon": 5.78396,
        "address": "GIÈRES",
        "capacity": 0
      },
      {
        "station_id": "19",
        "name": "GIERES GARE",
        "lat": 45.1855,
        "lon": 5.78519,
        "address": "GIÈRES",
        "capacity": 0
      },
      {
        "station_id": "20",
        "name": "AUGUSTE DELAUNE",
        "lat": 45.14225,
        "lon": 5.71545,
        "address": "GRENOBLE",
        "capacity": 0
      },
      {
        "station_id": "21",
        "name": "HOPITAL LA TRONCHE",
        "lat": 45.20175,
        "lon": 5.74061,
        "address": "LA TRONCHE",
        "capacity": 0
      },
      {
        "station_id": "22",
        "name": "ETIENNE GRAPPE",
        "lat": 45.17187,
        "lon": 5.75761,
        "address": "SAINT-MARTIN-D'HÈRES",
        "capacity": 0
      },
      {
        "station_id": "23",
        "name": "BEALIERES",
        "lat": 45.2115,
        "lon": 5.79148,
        "address": "MEYLAN",
        "capacity": 0
      },
      {
        "station_id": "24",
        "name": "DOMENE MAIRIE",
        "lat": 45.20159,
        "lon": 5.83826,
        "address": "DOMÈNE",
        "capacity": 0
      },
      {
        "station_id": "27",
        "name": "PONT DE VENCE",
        "lat": 45.23172,
        "lon": 5.68402,
        "address": "SAINT-ÉGRÈVE",
        "capacity": 0
      },
      {
        "station_id": "28",
        "name": "HOTEL DE VILLE",
        "lat": 45.18007,
        "lon": 5.6957,
        "address": "SEYSSINET-PARISET",
        "capacity": 0
      },
      {
        "station_id": "29",
        "name": "VEUREY",
        "lat": 45.26955,
        "lon": 5.61796,
        "address": "VEUREY-VOROIZE",
        "capacity": 0
      },
      {
        "station_id": "30",
        "name": "PIERRE DE COUBERTIN",
        "lat": 45.17579,
        "lon": 5.68772,
        "address": "SEYSSINET-PARISET",
        "capacity": 0
      },
      {
        "station_id": "25",
        "name": "PONT DE CLAIX",
        "lat": 45.13214,
        "lon": 5.69844,
        "address": "LE PONT-DE-CLAIX",
        "capacity": 0
      },
      {
        "station_id": "31",
        "name": "GRAND SABLON",
        "lat": 45.19186,
        "lon": 5.74387,
        "address": "LA TRONCHE",
        "capacity": 0
      },
      {
        "station_id": "32",
        "name": "SAN MARINO BARRAGE",
        "lat": 45.23705,
        "lon": 5.66071,
        "address": "SAINT-ÉGRÈVE",
        "capacity": 0
      },
      {
        "station_id": "33",
        "name": "SAN MARINO BARRAGE 2",
        "lat": 45.23705,
        "lon": 5.66075,
        "address": "SAINT-ÉGRÈVE",
        "capacity": 0
      },
      {
        "station_id": "34",
        "name": "VELODROME",
        "lat": 45.14733,
        "lon": 5.75532,
        "address": "EYBENS",
        "capacity": 0
      },
      {
        "station_id": "35",
        "name": "REPUBLIQUE",
        "lat": 45.2067,
        "lon": 5.66249,
        "address": "SASSENAGE",
        "capacity": 0
      },
      {
        "station_id": "26",
        "name": "CHENEVIERES",
        "lat": 45.20685,
        "lon": 5.82742,
        "address": "DOMÈNE",
        "capacity": 0
      },
      {
        "station_id": "36",
        "name": "VERDERET P+R",
        "lat": 45.14705,
        "lon": 5.75463,
        "address": "EYBENS",
        "capacity": 0
      },
      {
        "station_id": "37",
        "name": "SABLON",
        "lat": 45.19652,
        "lon": 5.75284,
        "address": "LA TRONCHE",
        "capacity": 0
      },
      {
        "station_id": "38",
        "name": "AIGUINARDS",
        "lat": 45.20538,
        "lon": 5.76456,
        "address": "MEYLAN",
        "capacity": 0
      },
      {
        "station_id": "39",
        "name": "PONT ROUGE",
        "lat": 45.11853,
        "lon": 5.69296,
        "address": "CLAIX",
        "capacity": 0
      },
      {
        "station_id": "40",
        "name": "ODYSSEE",
        "lat": 45.15335,
        "lon": 5.7486,
        "address": "EYBENS",
        "capacity": 0
      },
      {
        "station_id": "41",
        "name": "MURINANETTE",
        "lat": 45.19164,
        "lon": 5.81646,
        "address": "MURIANETTE",
        "capacity": 0
      },
      {
        "station_id": "42",
        "name": "LOUISE MICHEL",
        "lat": 45.16892,
        "lon": 5.71207,
        "address": "GRENOBLE",
        "capacity": 0
      },
      {
        "station_id": "43",
        "name": "JEAN JAURES",
        "lat": 45.18894,
        "lon": 5.71951,
        "address": "GRENOBLE",
        "capacity": 0
      },
      {
        "station_id": "44",
        "name": "JEAN BART",
        "lat": 45.17721,
        "lon": 5.74251,
        "address": "GRENOBLE",
        "capacity": 0
      },
      {
        "station_id": "45",
        "name": "ALFRED KASTLER",
        "lat": 45.18541,
        "lon": 5.75398,
        "address": "SAINT-MARTIN-D'HÈRES",
        "capacity": 0
      },
      {
        "station_id": "47",
        "name": "FELIX VIALLET",
        "lat": 45.19087,
        "lon": 5.71945,
        "address": "GRENOBLE",
        "capacity": 0
      },
      {
        "station_id": "48",
        "name": "JEAN PREVOST",
        "lat": 45.21358,
        "lon": 5.66111,
        "address": "SASSENAGE",
        "capacity": 0
      },
      {
        "station_id": "49",
        "name": "STADE GUETAT 1",
        "lat": 45.17572,
        "lon": 5.68775,
        "address": "SEYSSINET-PARISET",
        "capacity": 0
      },
      {
        "station_id": "50",
        "name": "ANDRE MAGINOT",
        "lat": 45.18246,
        "lon": 5.72665,
        "address": "GRENOBLE",
        "capacity": 0
      },
      {
        "station_id": "51",
        "name": "BERRIAT MAGASIN",
        "lat": 45.18921,
        "lon": 5.70574,
        "address": "GRENOBLE",
        "capacity": 0
      },
      {
        "station_id": "52",
        "name": "REPOS",
        "lat": 45.17831,
        "lon": 5.78314,
        "address": "GIÈRES",
        "capacity": 0
      },
      {
        "station_id": "53",
        "name": "THIERS",
        "lat": 45.17831,
        "lon": 5.78314,
        "address": "GRENOBLE",
        "capacity": 0
      },
      {
        "station_id": "54",
        "name": "LIBERATION",
        "lat": 45.17822,
        "lon": 5.71597,
        "address": "GRENOBLE",
        "capacity": 0
      },
      {
        "station_id": "55",
        "name": "PRE DE L'EAU P+R",
        "lat": 45.22425,
        "lon": 5.81926,
        "address": "MONTBONNOT-SAINT-MARTIN",
        "capacity": 0
      },
      {
        "station_id": "56",
        "name": "PRE DE L'EAU TERMINUS BUS",
        "lat": 45.22393,
        "lon": 5.81991,
        "address": "MONTBONNOT-SAINT-MARTIN",
        "capacity": 0
      },
      {
        "station_id": "59",
        "name": "CATANE",
        "lat": 45.18003,
        "lon": 5.6955,
        "address": "SEYSSINET-PARISET",
        "capacity": 0
      },
      {
        "station_id": "60",
        "name": "PAUL COCAT",
        "lat": 45.17174,
        "lon": 5.74309,
        "address": "GRENOBLE",
        "capacity": 0
      },
      {
        "station_id": "61",
        "name": "CROIZAT",
        "lat": 45.18482,
        "lon": 5.75075,
        "address": "SAINT-MARTIN-D'HÈRES",
        "capacity": 0
      },
      {
        "station_id": "62",
        "name": "CHARPENNAY 1",
        "lat": 45.20218,
        "lon": 5.73563,
        "address": "LA TRONCHE",
        "capacity": 0
      },
      {
        "station_id": "63",
        "name": "CHARPENNAY 2",
        "lat": 45.20211,
        "lon": 5.73549,
        "address": "LA TRONCHE",
        "capacity": 0
      },
      {
        "station_id": "64",
        "name": "PLAINE FLEURIE",
        "lat": 45.20562,
        "lon": 5.75802,
        "address": "MEYLAN",
        "capacity": 0
      },
      {
        "station_id": "65",
        "name": "CHEVALIER-JOUVIN",
        "lat": 45.19641,
        "lon": 5.73112,
        "address": "GRENOBLE",
        "capacity": 0
      },
      {
        "station_id": "66",
        "name": "AUGIER",
        "lat": 45.19057,
        "lon": 5.72291,
        "address": "GRENOBLE",
        "capacity": 0
      },
      {
        "station_id": "67",
        "name": "VILLARS-FAURE",
        "lat": 45.18854,
        "lon": 5.73477,
        "address": "GRENOBLE",
        "capacity": 0
      },
      {
        "station_id": "68",
        "name": "CHAMPON",
        "lat": 45.18243,
        "lon": 5.7315,
        "address": "GRENOBLE",
        "capacity": 0
      },
      {
        "station_id": "69",
        "name": "LYON",
        "lat": 45.19501,
        "lon": 5.71915,
        "address": "GRENOBLE",
        "capacity": 0
      },
      {
        "station_id": "70",
        "name": "VILLARS-HEBERT",
        "lat": 45.18939,
        "lon": 5.7341,
        "address": "GRENOBLE",
        "capacity": 0
      },
      {
        "station_id": "71",
        "name": "PONTCHARRA GARE",
        "lat": 45.43391,
        "lon": 6.00782,
        "address": "PONTCHARRA",
        "capacity": 0
      },
      {
        "station_id": "72",
        "name": "GRANDES TERRES",
        "lat": 45.35768,
        "lon": 5.95501,
        "address": "LE TOUVET",
        "capacity": 0
      },
      {
        "station_id": "73",
        "name": "LONGS PRES",
        "lat": 45.3024,
        "lon": 5.90741,
        "address": "LUMBIN",
        "capacity": 0
      },
      {
        "station_id": "74",
        "name": "CLOYERES",
        "lat": 45.26448,
        "lon": 5.8783,
        "address": "BERNIN",
        "capacity": 0
      },
      {
        "station_id": "75",
        "name": "FROGES",
        "lat": 45.25888,
        "lon": 5.90899,
        "address": "FROGES",
        "capacity": 0
      },
      {
        "station_id": "76",
        "name": "LE CHAMP PRES FROGES",
        "lat": 45.28493,
        "lon": 5.93542,
        "address": "FROGES",
        "capacity": 0
      },
      {
        "station_id": "77",
        "name": "PRE SEC",
        "lat": 45.30409,
        "lon": 5.95318,
        "address": "TENCIN",
        "capacity": 0
      },
      {
        "station_id": "78",
        "name": "ROUTE DE CHAMBERY",
        "lat": 45.25642,
        "lon": 5.84733,
        "address": "SAINT-NAZAIRE-LES-EYMES",
        "capacity": 0
      },
      {
        "station_id": "79",
        "name": "ACHARD",
        "lat": 45.18932,
        "lon": 5.72971,
        "address": "GRENOBLE",
        "capacity": 0
      },
      {
        "station_id": "80",
        "name": "MOZART",
        "lat": 45.18562,
        "lon": 5.70928,
        "address": "GRENOBLE",
        "capacity": 0
      },
      {
        "station_id": "82",
        "name": "CLEMENT",
        "lat": 45.18529,
        "lon": 5.71651,
        "address": "GRENOBLE",
        "capacity": 0
      },
      {
        "station_id": "83",
        "name": "CHANARON",
        "lat": 45.18652,
        "lon": 5.72276,
        "address": "GRENOBLE",
        "capacity": 0
      },
      {
        "station_id": "85",
        "name": "OFFICE DE TOURISME",
        "lat": 45.14362,
        "lon": 5.82956,
        "address": "SAINT-MARTIN-D'URIAGE",
        "capacity": 0
      },
      {
        "station_id": "86",
        "name": "PINS",
        "lat": 45.24583,
        "lon": 5.83069,
        "address": "SAINT-ISMIER",
        "capacity": 0
      },
      {
        "station_id": "87",
        "name": "CROIX DES AYES",
        "lat": 45.27731,
        "lon": 5.87307,
        "address": "CROLLES",
        "capacity": 0
      },
      {
        "station_id": "88",
        "name": "AMBROISE CROISAT",
        "lat": 45.27168,
        "lon": 5.88865,
        "address": "CROLLES",
        "capacity": 0
      },
      {
        "station_id": "90",
        "name": "JULES FERRY",
        "lat": 45.39357,
        "lon": 6.0716,
        "address": "ALLEVARD",
        "capacity": 0
      },
      {
        "station_id": "91",
        "name": "CLAVERINS",
        "lat": 45.23359,
        "lon": 5.80898,
        "address": "BIVIERS",
        "capacity": 0
      },
      {
        "station_id": "92",
        "name": "CRETS",
        "lat": 45.37177,
        "lon": 6.05185,
        "address": "CRÊTS EN BELLEDONNE",
        "capacity": 0
      },
      {
        "station_id": "93",
        "name": "MERDARET",
        "lat": 45.3004,
        "lon": 5.99604,
        "address": "THEYS",
        "capacity": 0
      },
      {
        "station_id": "94",
        "name": "ARSONVAL",
        "lat": 45.19277,
        "lon": 5.71749,
        "address": "GRENOBLE",
        "capacity": 0
      },
      {
        "station_id": "95",
        "name": "JOLIOT CURIE",
        "lat": 45.19824,
        "lon": 5.69266,
        "address": "FONTAINE",
        "capacity": 0
      },
      {
        "station_id": "96",
        "name": "ENGENIERES",
        "lat": 45.22073,
        "lon": 5.66,
        "address": "SASSENAGE",
        "capacity": 0
      },
      {
        "station_id": "97",
        "name": "NAVIS",
        "lat": 45.1562,
        "lon": 5.70811,
        "address": "ÉCHIROLLES",
        "capacity": 0
      },
      {
        "station_id": "98",
        "name": "ROBERT HUANT",
        "lat": 45.264,
        "lon": 5.89997,
        "address": "VILLARD-BONNOT",
        "capacity": 0
      },
      {
        "station_id": "100",
        "name": "REPOS 100E",
        "lat": 45.17829,
        "lon": 5.7831,
        "address": "GIÈRES",
        "capacity": 0
      },
      {
        "station_id": "101",
        "name": "MARTIN",
        "lat": 45.18825,
        "lon": 5.72772,
        "address": "GRENOBLE",
        "capacity": 0
      },
      {
        "station_id": "102",
        "name": "SAN MARINO",
        "lat": 45.23723,
        "lon": 5.66034,
        "address": "SAINT-ÉGRÈVE",
        "capacity": 0
      },
      {
        "station_id": "103",
        "name": "CHATELET",
        "lat": 45.23084,
        "lon": 5.68237,
        "address": "SAINT-ÉGRÈVE",
        "capacity": 0
      },
      {
        "station_id": "104",
        "name": "CLEMENCEAU",
        "lat": 45.18607,
        "lon": 5.7434,
        "address": "GRENOBLE",
        "capacity": 0
      },
      {
        "station_id": "105",
        "name": "BOCQ",
        "lat": 45.18663,
        "lon": 5.73306,
        "address": "GRENOBLE",
        "capacity": 0
      },
      {
        "station_id": "106",
        "name": "PLAINE DES SPORTS",
        "lat": 45.18788,
        "lon": 5.78403,
        "address": "GIÈRES",
        "capacity": 0
      },
      {
        "station_id": "107",
        "name": "CHEMIN DES ALPINS",
        "lat": 45.17176,
        "lon": 5.72322,
        "address": "GRENOBLE",
        "capacity": 0
      },
      {
        "station_id": "108",
        "name": "LA MONTA",
        "lat": 45.23979,
        "lon": 5.69083,
        "address": "SAINT-ÉGRÈVE",
        "capacity": 0
      },
      {
        "station_id": "109",
        "name": "CHANARON 2",
        "lat": 45.18695,
        "lon": 5.72337,
        "address": "GRENOBLE",
        "capacity": 0
      },
      {
        "station_id": "110",
        "name": "MITAILLERES",
        "lat": 45.20568,
        "lon": 5.76683,
        "address": "MEYLAN",
        "capacity": 0
      },
      {
        "station_id": "111",
        "name": "LIBERTE",
        "lat": 45.19086,
        "lon": 5.68963,
        "address": "FONTAINE",
        "capacity": 0
      },
      {
        "station_id": "112",
        "name": "SEYSSINS LE PRISME",
        "lat": 45.16618,
        "lon": 5.69099,
        "address": "SEYSSINS",
        "capacity": 0
      },
      {
        "station_id": "113",
        "name": "SAINT-NAZAIRE-LES-EYMES-RD1090",
        "lat": 45.25641,
        "lon": 5.84733,
        "address": "SAINT-NAZAIRE-LES-EYMES",
        "capacity": 0
      },
      {
        "station_id": "114",
        "name": "BENOIT FRACHON",
        "lat": 45.18671,
        "lon": 5.75539,
        "address": "SAINT-MARTIN-D'HÈRES",
        "capacity": 0
      },
      {
        "station_id": "115",
        "name": "STADE GUETAT 2",
        "lat": 45.1758,
        "lon": 5.68765,
        "address": "SEYSSINET-PARISET",
        "capacity": 0
      },
      {
        "station_id": "116",
        "name": "VERCORS/GENERAL DE GAULLE",
        "lat": 45.17644,
        "lon": 5.68714,
        "address": "SEYSSINET-PARISET",
        "capacity": 0
      },
      {
        "station_id": "117",
        "name": "P+R BIEVRE DAUPHINE",
        "lat": 45.38179,
        "lon": 5.4775,
        "address": "RIVES",
        "capacity": 0
      },
      {
        "station_id": "118",
        "name": "GARE REAUMONT",
        "lat": 45.36873,
        "lon": 5.53464,
        "address": "RÉAUMONT",
        "capacity": 0
      },
      {
        "station_id": "119",
        "name": "P+R CHAMPFEUILLET",
        "lat": 45.34972,
        "lon": 5.5677,
        "address": "VOIRON",
        "capacity": 0
      },
      {
        "station_id": "120",
        "name": "LE GAY GIRATOIRE",
        "lat": 45.33156,
        "lon": 5.61324,
        "address": "LA BUISSE",
        "capacity": 0
      },
      {
        "station_id": "121",
        "name": "P+R PLAN MENU",
        "lat": 45.35342,
        "lon": 5.59796,
        "address": "COUBLEVIE",
        "capacity": 0
      },
      {
        "station_id": "122",
        "name": "PEM LA BATIE",
        "lat": 45.24086,
        "lon": 5.84777,
        "address": "SAINT-ISMIER",
        "capacity": 0
      },
      {
        "station_id": "123",
        "name": "GARE DE MOIRANS 1",
        "lat": 45.32254,
        "lon": 5.58183,
        "address": "MOIRANS",
        "capacity": 0
      },
      {
        "station_id": "124",
        "name": "GARE DE MOIRANS 2",
        "lat": 45.32255,
        "lon": 5.58185,
        "address": "MOIRANS",
        "capacity": 0
      },
      {
        "station_id": "128",
        "name": "P+R CHANTEFEUILLE",
        "lat": 45.0803,
        "lon": 5.77538,
        "address": "VIZILLE",
        "capacity": 0
      },
      {
        "station_id": "138",
        "name": "PALLUEL",
        "lat": 45.17998,
        "lon": 5.71326,
        "address": "FONTANIL-CORNILLON",
        "capacity": 0
      },
      {
        "station_id": "129",
        "name": "P+R CHANTEFEUILLE",
        "lat": 45.08024,
        "lon": 5.77534,
        "address": "VIZILLE",
        "capacity": 0
      },
      {
        "station_id": "130",
        "name": "JULES FERRY",
        "lat": 45.18281,
        "lon": 5.73819,
        "address": "GRENOBLE",
        "capacity": 0
      },
      {
        "station_id": "131",
        "name": "BIZANET",
        "lat": 45.19742,
        "lon": 5.73849,
        "address": "GRENOBLE",
        "capacity": 0
      },
      {
        "station_id": "132",
        "name": "GABRIEL PERI",
        "lat": 45.18795,
        "lon": 5.71775,
        "address": "GRENOBLE",
        "capacity": 0
      },
      {
        "station_id": "133",
        "name": "CHARREL",
        "lat": 45.18252,
        "lon": 5.71176,
        "address": "GRENOBLE",
        "capacity": 0
      },
      {
        "station_id": "134",
        "name": "NOYAREY",
        "lat": 45.24463,
        "lon": 5.63591,
        "address": "NOYAREY",
        "capacity": 0
      },
      {
        "station_id": "137",
        "name": "PEM LA BUISSIERE",
        "lat": 45.42598,
        "lon": 5.99416,
        "address": "LA BUISSIÈRE",
        "capacity": 0
      },
      {
        "station_id": "135",
        "name": "GRANDE SURE",
        "lat": 45.33823,
        "lon": 5.58344,
        "address": "SAINT-JEAN-DE-MOIRANS",
        "capacity": 0
      },
      {
        "station_id": "136",
        "name": "MAIRIE",
        "lat": 45.3423,
        "lon": 5.58187,
        "address": "SAINT-JEAN-DE-MOIRANS",
        "capacity": 0
      }
    ]
  }
}