{
  "data": {
    "stations": [
      {
        "is_virtual_station": true,
        "lat": 42.70154,
        "lon": 2.894564,
        "name": "perpignan_parking_WILSON_boulevard_Thomas_zidQJRTR6MM",
        "station_id": "perpignan_parking_WILSON_boulevard_Thomas_zidQJRTR6MM"
      },
      {
        "is_virtual_station": true,
        "lat": 42.700786,
        "lon": 2.894424,
        "name": "perpignan_parking_CASTILLET_rue_du_zid0ZJ5Z4QZ",
        "station_id": "perpignan_parking_CASTILLET_rue_du_zid0ZJ5Z4QZ"
      },
      {
        "is_virtual_station": true,
        "lat": 42.700863,
        "lon": 2.894965,
        "name": "perpignan_parking_CASTILLET_rue_du_zidSCIZ769Y",
        "station_id": "perpignan_parking_CASTILLET_rue_du_zidSCIZ769Y"
      },
      {
        "is_virtual_station": true,
        "lat": 42.701737,
        "lon": 2.895318,
        "name": "perpignan_parking_WILSON_boulevard_Thomas_zidJQBVK9B0",
        "station_id": "perpignan_parking_WILSON_boulevard_Thomas_zidJQBVK9B0"
      },
      {
        "is_virtual_station": true,
        "lat": 42.683836,
        "lon": 2.897717,
        "name": "perpignan_parking_PASSIO_VELLA_chemin_de_la_zidKNGTBVC0",
        "station_id": "perpignan_parking_PASSIO_VELLA_chemin_de_la_zidKNGTBVC0"
      },
      {
        "is_virtual_station": true,
        "lat": 42.694084,
        "lon": 2.89405,
        "name": "perpignan_parking_ARCHERS_rue_des_zid2UKIPUY4",
        "station_id": "perpignan_parking_ARCHERS_rue_des_zid2UKIPUY4"
      },
      {
        "is_virtual_station": true,
        "lat": 42.698671,
        "lon": 2.888222,
        "name": "perpignan_parking_CLEMENCEAU_boulevard_Georges_zid8PTIG7QH",
        "station_id": "perpignan_parking_CLEMENCEAU_boulevard_Georges_zid8PTIG7QH"
      },
      {
        "is_virtual_station": true,
        "lat": 42.69839,
        "lon": 2.889497,
        "name": "perpignan_parking_PAYRA_place_Jean_zidGPM257WH",
        "station_id": "perpignan_parking_PAYRA_place_Jean_zidGPM257WH"
      },
      {
        "is_virtual_station": true,
        "lat": 42.698411,
        "lon": 2.889526,
        "name": "perpignan_parking_PAYRA_place_Jean_zid1CTHGPI5",
        "station_id": "perpignan_parking_PAYRA_place_Jean_zid1CTHGPI5"
      },
      {
        "is_virtual_station": true,
        "lat": 42.697445,
        "lon": 2.892411,
        "name": "perpignan_parking_PONT_D_EN_VESTIT_place_du_zidF8P5RCRY",
        "station_id": "perpignan_parking_PONT_D_EN_VESTIT_place_du_zidF8P5RCRY"
      },
      {
        "is_virtual_station": true,
        "lat": 42.697408,
        "lon": 2.892354,
        "name": "perpignan_parking_PONT_D_EN_VESTIT_place_du_zidK2TDBT57",
        "station_id": "perpignan_parking_PONT_D_EN_VESTIT_place_du_zidK2TDBT57"
      },
      {
        "is_virtual_station": true,
        "lat": 42.722519,
        "lon": 2.885891,
        "name": "perpignan_parking_LANGUEDOC_avenue_du_RD_88_zidL9BSTU24",
        "station_id": "perpignan_parking_LANGUEDOC_avenue_du_RD_88_zidL9BSTU24"
      },
      {
        "is_virtual_station": true,
        "lat": 42.716143,
        "lon": 2.892221,
        "name": "perpignan_parking_GAUGUIN_avenue_Paul_zid3FMSUISD",
        "station_id": "perpignan_parking_GAUGUIN_avenue_Paul_zid3FMSUISD"
      },
      {
        "is_virtual_station": true,
        "lat": 42.716405,
        "lon": 2.89214,
        "name": "perpignan_parking_GAUGUIN_avenue_Paul_zid75K0E1MR",
        "station_id": "perpignan_parking_GAUGUIN_avenue_Paul_zid75K0E1MR"
      },
      {
        "is_virtual_station": true,
        "lat": 42.716203,
        "lon": 2.892357,
        "name": "perpignan_parking_GAUGUIN_avenue_Paul_zid2162Z79P",
        "station_id": "perpignan_parking_GAUGUIN_avenue_Paul_zid2162Z79P"
      },
      {
        "is_virtual_station": true,
        "lat": 42.716174,
        "lon": 2.892296,
        "name": "perpignan_parking_GAUGUIN_avenue_Paul_zidOE9P773W",
        "station_id": "perpignan_parking_GAUGUIN_avenue_Paul_zidOE9P773W"
      },
      {
        "is_virtual_station": true,
        "lat": 42.722997,
        "lon": 2.884005,
        "name": "perpignan_parking_AERODROME_avenue_de_l__RD_117_zidN71VVNZ8",
        "station_id": "perpignan_parking_AERODROME_avenue_de_l__RD_117_zidN71VVNZ8"
      },
      {
        "is_virtual_station": true,
        "lat": 42.702607,
        "lon": 2.898527,
        "name": "perpignan_parking_PALMAROLE_cours_Francois_zidL6CGHIZT",
        "station_id": "perpignan_parking_PALMAROLE_cours_Francois_zidL6CGHIZT"
      },
      {
        "is_virtual_station": true,
        "lat": 42.692381815871606,
        "lon": 2.875001573697481,
        "name": "perpignan_parking_RAISINS_rue_des_zid49PEL0O6",
        "station_id": "perpignan_parking_RAISINS_rue_des_zid49PEL0O6"
      },
      {
        "is_virtual_station": true,
        "lat": 42.698578,
        "lon": 2.880135,
        "name": "perpignan_parking_VALETTE_rue_Frederic_zidCOFCDVW0",
        "station_id": "perpignan_parking_VALETTE_rue_Frederic_zidCOFCDVW0"
      },
      {
        "is_virtual_station": true,
        "lat": 42.694199,
        "lon": 2.888258,
        "name": "perpignan_parking_NULL_zidJTTK7T40",
        "station_id": "perpignan_parking_NULL_zidJTTK7T40"
      },
      {
        "is_virtual_station": true,
        "lat": 42.694226,
        "lon": 2.888283,
        "name": "perpignan_parking_FOCH_rue_Marechal_zidFKDKH0EE",
        "station_id": "perpignan_parking_FOCH_rue_Marechal_zidFKDKH0EE"
      },
      {
        "is_virtual_station": true,
        "lat": 42.698665,
        "lon": 2.892338,
        "name": "perpignan_parking_ARAGO_place_Francois_zidXGPAOWLP",
        "station_id": "perpignan_parking_ARAGO_place_Francois_zidXGPAOWLP"
      },
      {
        "is_virtual_station": true,
        "lat": 42.698697,
        "lon": 2.892363,
        "name": "perpignan_parking_ARAGO_place_Francois_zidV0XWC7FK",
        "station_id": "perpignan_parking_ARAGO_place_Francois_zidV0XWC7FK"
      },
      {
        "is_virtual_station": true,
        "lat": 42.698505,
        "lon": 2.892203,
        "name": "perpignan_parking_ARAGO_place_Francois_zidA0KD1RGH",
        "station_id": "perpignan_parking_ARAGO_place_Francois_zidA0KD1RGH"
      },
      {
        "is_virtual_station": true,
        "lat": 42.695929,
        "lon": 2.888444,
        "name": "perpignan_parking_PYRENEES_boulevard_des_zid774ELT5Y",
        "station_id": "perpignan_parking_PYRENEES_boulevard_des_zid774ELT5Y"
      },
      {
        "is_virtual_station": true,
        "lat": 42.706956,
        "lon": 2.891516,
        "name": "perpignan_parking_JOFFRE_avenue_Marechal_RD_88_zidU8B2OJ32",
        "station_id": "perpignan_parking_JOFFRE_avenue_Marechal_RD_88_zidU8B2OJ32"
      },
      {
        "is_virtual_station": true,
        "lat": 42.695986,
        "lon": 2.888422,
        "name": "perpignan_parking_PYRENEES_boulevard_des_zidLNBSS3FJ",
        "station_id": "perpignan_parking_PYRENEES_boulevard_des_zidLNBSS3FJ"
      },
      {
        "is_virtual_station": true,
        "lat": 42.698525,
        "lon": 2.892224,
        "name": "perpignan_parking_ARAGO_place_Francois_zidQM9E43X3",
        "station_id": "perpignan_parking_ARAGO_place_Francois_zidQM9E43X3"
      },
      {
        "is_virtual_station": true,
        "lat": 42.695252,
        "lon": 2.888814,
        "name": "perpignan_parking_PYRENEES_boulevard_des_zidOVNUEX7O",
        "station_id": "perpignan_parking_PYRENEES_boulevard_des_zidOVNUEX7O"
      },
      {
        "is_virtual_station": true,
        "lat": 42.700476,
        "lon": 2.89073,
        "name": "perpignan_parking_CLEMENCEAU_boulevard_Georges_zidWBSVQ8LA",
        "station_id": "perpignan_parking_CLEMENCEAU_boulevard_Georges_zidWBSVQ8LA"
      },
      {
        "is_virtual_station": true,
        "lat": 42.698403,
        "lon": 2.889532,
        "name": "perpignan_parking_PAYRA_place_Jean_zidC7LOE0FJ",
        "station_id": "perpignan_parking_PAYRA_place_Jean_zidC7LOE0FJ"
      },
      {
        "is_virtual_station": true,
        "lat": 42.694601,
        "lon": 2.878604,
        "name": "perpignan_parking_FRESNEL_rue_Augustin_zidFSH2JBX1",
        "station_id": "perpignan_parking_FRESNEL_rue_Augustin_zidFSH2JBX1"
      },
      {
        "is_virtual_station": true,
        "lat": 42.694238,
        "lon": 2.877336,
        "name": "perpignan_parking_FRESNEL_rue_Augustin_zid7CSTHAF8",
        "station_id": "perpignan_parking_FRESNEL_rue_Augustin_zid7CSTHAF8"
      },
      {
        "is_virtual_station": true,
        "lat": 42.69458,
        "lon": 2.878379,
        "name": "perpignan_parking_FRESNEL_rue_Augustin_zidFPB1SPY1",
        "station_id": "perpignan_parking_FRESNEL_rue_Augustin_zidFPB1SPY1"
      },
      {
        "is_virtual_station": true,
        "lat": 42.694619,
        "lon": 2.878172,
        "name": "perpignan_parking_GAUDI_rue_zidOPMFAAEV",
        "station_id": "perpignan_parking_GAUDI_rue_zidOPMFAAEV"
      },
      {
        "is_virtual_station": true,
        "lat": 42.695978,
        "lon": 2.878223,
        "name": "perpignan_parking_SAINT_ASSISCLE_boulevard_zidBXJ1IEF2",
        "station_id": "perpignan_parking_SAINT_ASSISCLE_boulevard_zidBXJ1IEF2"
      },
      {
        "is_virtual_station": true,
        "lat": 42.701672,
        "lon": 2.891848,
        "name": "perpignan_parking_LECLERC_avenue_Marechal_zidO5LWGT86",
        "station_id": "perpignan_parking_LECLERC_avenue_Marechal_zidO5LWGT86"
      },
      {
        "is_virtual_station": true,
        "lat": 42.701285,
        "lon": 2.890668,
        "name": "perpignan_parking_DESMOULINS_rue_Camille_zidIXMN7MZQ",
        "station_id": "perpignan_parking_DESMOULINS_rue_Camille_zidIXMN7MZQ"
      },
      {
        "is_virtual_station": true,
        "lat": 42.709471,
        "lon": 2.891527,
        "name": "perpignan_parking_LE_ROY_esplanade_Edouard_zid9CFW26YR",
        "station_id": "perpignan_parking_LE_ROY_esplanade_Edouard_zid9CFW26YR"
      },
      {
        "is_virtual_station": true,
        "lat": 42.723941,
        "lon": 2.884643,
        "name": "perpignan_parking_BRUTUS_esplanade_zidVX1E9QWZ",
        "station_id": "perpignan_parking_BRUTUS_esplanade_zidVX1E9QWZ"
      },
      {
        "capacity": 3,
        "is_virtual_station": true,
        "lat": 42.69606,
        "lon": 2.881331,
        "name": "perpignan_parking_ALGER_rue_d__zidEC0RBZ3G",
        "station_id": "perpignan_parking_ALGER_rue_d__zidEC0RBZ3G"
      },
      {
        "is_virtual_station": true,
        "lat": 42.697366,
        "lon": 2.886546,
        "name": "perpignan_parking_SAINT_AMAND_rue_zidB0IL68AE",
        "station_id": "perpignan_parking_SAINT_AMAND_rue_zidB0IL68AE"
      },
      {
        "is_virtual_station": true,
        "lat": 42.70972,
        "lon": 2.891229,
        "name": "perpignan_parking_PONCELET_rue_Jean_Victor_zidWHY4FJYR",
        "station_id": "perpignan_parking_PONCELET_rue_Jean_Victor_zidWHY4FJYR"
      },
      {
        "is_virtual_station": true,
        "lat": 42.694894,
        "lon": 2.887637,
        "name": "perpignan_parking_LYCEE_avenue_du_zidCNCK5MYO",
        "station_id": "perpignan_parking_LYCEE_avenue_du_zidCNCK5MYO"
      },
      {
        "is_virtual_station": true,
        "lat": 42.695809,
        "lon": 2.88398,
        "name": "perpignan_parking_MASSOT_rue_Paul_zidCXMUTWJV",
        "station_id": "perpignan_parking_MASSOT_rue_Paul_zidCXMUTWJV"
      },
      {
        "is_virtual_station": true,
        "lat": 42.694978,
        "lon": 2.889254,
        "name": "perpignan_parking_FOCH_rue_Marechal_zidYQ68F3R8",
        "station_id": "perpignan_parking_FOCH_rue_Marechal_zidYQ68F3R8"
      },
      {
        "is_virtual_station": true,
        "lat": 42.693746,
        "lon": 2.890265,
        "name": "perpignan_parking_MERCADER_boulevard_Felix_zidEQT7X77S",
        "station_id": "perpignan_parking_MERCADER_boulevard_Felix_zidEQT7X77S"
      },
      {
        "is_virtual_station": true,
        "lat": 42.694244,
        "lon": 2.889847,
        "name": "perpignan_parking_MERCADER_boulevard_Felix_zid2OQ05RHN",
        "station_id": "perpignan_parking_MERCADER_boulevard_Felix_zid2OQ05RHN"
      },
      {
        "is_virtual_station": true,
        "lat": 42.69259,
        "lon": 2.891789,
        "name": "perpignan_parking_MERCADER_boulevard_Felix_zidRVIOLDNS",
        "station_id": "perpignan_parking_MERCADER_boulevard_Felix_zidRVIOLDNS"
      },
      {
        "is_virtual_station": true,
        "lat": 42.701454,
        "lon": 2.894309,
        "name": "perpignan_parking_WILSON_boulevard_Thomas_zid5B6LIR06",
        "station_id": "perpignan_parking_WILSON_boulevard_Thomas_zid5B6LIR06"
      },
      {
        "is_virtual_station": true,
        "lat": 42.69796,
        "lon": 2.885799,
        "name": "perpignan_parking_VILLAS_AMIEL_allee_des_zidI2OEC634",
        "station_id": "perpignan_parking_VILLAS_AMIEL_allee_des_zidI2OEC634"
      },
      {
        "is_virtual_station": true,
        "lat": 42.697327,
        "lon": 2.883981,
        "name": "perpignan_parking_GAULLE_avenue_General_de_zid50FMUEYT",
        "station_id": "perpignan_parking_GAULLE_avenue_General_de_zid50FMUEYT"
      },
      {
        "is_virtual_station": true,
        "lat": 42.69643,
        "lon": 2.888229,
        "name": "perpignan_parking_PYRENEES_boulevard_des_zidGU2IX8HM",
        "station_id": "perpignan_parking_PYRENEES_boulevard_des_zidGU2IX8HM"
      },
      {
        "is_virtual_station": true,
        "lat": 42.697851,
        "lon": 2.887438,
        "name": "perpignan_parking_DIEUDE_rue_Leon_zidFCCLEXIO",
        "station_id": "perpignan_parking_DIEUDE_rue_Leon_zidFCCLEXIO"
      },
      {
        "is_virtual_station": true,
        "lat": 42.696236,
        "lon": 2.888497,
        "name": "perpignan_parking_PYRENEES_boulevard_des_zidFZ2U8DLU",
        "station_id": "perpignan_parking_PYRENEES_boulevard_des_zidFZ2U8DLU"
      },
      {
        "is_virtual_station": true,
        "lat": 42.696048,
        "lon": 2.890382,
        "name": "perpignan_parking_BAUSIL_allee_des_Freres_zidNPIW5P5O",
        "station_id": "perpignan_parking_BAUSIL_allee_des_Freres_zidNPIW5P5O"
      },
      {
        "is_virtual_station": true,
        "lat": 42.697616,
        "lon": 2.892334,
        "name": "perpignan_parking_PORTE_D_ASSAUT_rue_zidN4C8ZH32",
        "station_id": "perpignan_parking_PORTE_D_ASSAUT_rue_zidN4C8ZH32"
      },
      {
        "is_virtual_station": true,
        "lat": 42.702061,
        "lon": 2.882123,
        "name": "perpignan_parking_TORCATIS_avenue_Louis_zidQA081967",
        "station_id": "perpignan_parking_TORCATIS_avenue_Louis_zidQA081967"
      },
      {
        "is_virtual_station": true,
        "lat": 42.71642,
        "lon": 2.892023,
        "name": "perpignan_parking_GAUGUIN_avenue_Paul_zidWTEPNVDX",
        "station_id": "perpignan_parking_GAUGUIN_avenue_Paul_zidWTEPNVDX"
      },
      {
        "is_virtual_station": true,
        "lat": 42.703897,
        "lon": 2.890561,
        "name": "perpignan_parking_TORCATIS_avenue_Louis_zidIV5INBUN",
        "station_id": "perpignan_parking_TORCATIS_avenue_Louis_zidIV5INBUN"
      },
      {
        "is_virtual_station": true,
        "lat": 42.723528,
        "lon": 2.883906,
        "name": "perpignan_parking_BRUTUS_esplanade_zidMJIN1KU2",
        "station_id": "perpignan_parking_BRUTUS_esplanade_zidMJIN1KU2"
      },
      {
        "is_virtual_station": true,
        "lat": 42.721967,
        "lon": 2.885107,
        "name": "perpignan_parking_AERODROME_avenue_de_l__RD_117_zid1DNF5RNV",
        "station_id": "perpignan_parking_AERODROME_avenue_de_l__RD_117_zid1DNF5RNV"
      },
      {
        "is_virtual_station": true,
        "lat": 42.715495,
        "lon": 2.88819,
        "name": "perpignan_parking_JOFFRE_avenue_Marechal_RD_88_zidOX44751R",
        "station_id": "perpignan_parking_JOFFRE_avenue_Marechal_RD_88_zidOX44751R"
      },
      {
        "is_virtual_station": true,
        "lat": 42.711503,
        "lon": 2.889908,
        "name": "perpignan_parking_JOFFRE_avenue_Marechal_RD_88_zid7CS74HC1",
        "station_id": "perpignan_parking_JOFFRE_avenue_Marechal_RD_88_zid7CS74HC1"
      },
      {
        "is_virtual_station": true,
        "lat": 42.707307,
        "lon": 2.891125,
        "name": "perpignan_parking_JOFFRE_avenue_Marechal_RD_88_zidMAJGG380",
        "station_id": "perpignan_parking_JOFFRE_avenue_Marechal_RD_88_zidMAJGG380"
      },
      {
        "is_virtual_station": true,
        "lat": 42.707014,
        "lon": 2.891486,
        "name": "perpignan_parking_JOFFRE_avenue_Marechal_RD_88_zid0PJ9TXBT",
        "station_id": "perpignan_parking_JOFFRE_avenue_Marechal_RD_88_zid0PJ9TXBT"
      },
      {
        "is_virtual_station": true,
        "lat": 42.696666,
        "lon": 2.87978,
        "name": "perpignan_parking_DALI_place_Salvador_zidWAKX5Y06",
        "station_id": "perpignan_parking_DALI_place_Salvador_zidWAKX5Y06"
      },
      {
        "is_virtual_station": true,
        "lat": 42.698172,
        "lon": 2.886626,
        "name": "perpignan_parking_FRANKLIN_rue_Benjamin_zidC2THE0LY",
        "station_id": "perpignan_parking_FRANKLIN_rue_Benjamin_zidC2THE0LY"
      },
      {
        "is_virtual_station": true,
        "lat": 42.699775,
        "lon": 2.893111,
        "name": "perpignan_parking_CARNOT_quai_Sadi_zid3GTWD7X9",
        "station_id": "perpignan_parking_CARNOT_quai_Sadi_zid3GTWD7X9"
      },
      {
        "is_virtual_station": true,
        "lat": 42.707066,
        "lon": 2.891467,
        "name": "perpignan_parking_JOFFRE_avenue_Marechal_RD_88_zidBI6HE3E1",
        "station_id": "perpignan_parking_JOFFRE_avenue_Marechal_RD_88_zidBI6HE3E1"
      },
      {
        "is_virtual_station": true,
        "lat": 42.69684,
        "lon": 2.882121,
        "name": "perpignan_parking_GAULLE_avenue_General_de_zid8S8DOE98",
        "station_id": "perpignan_parking_GAULLE_avenue_General_de_zid8S8DOE98"
      },
      {
        "is_virtual_station": true,
        "lat": 42.721571,
        "lon": 2.885565,
        "name": "perpignan_parking_AERODROME_avenue_de_l__RD_117_zidHTGSOVCZ",
        "station_id": "perpignan_parking_AERODROME_avenue_de_l__RD_117_zidHTGSOVCZ"
      },
      {
        "is_virtual_station": true,
        "lat": 42.717158,
        "lon": 2.887738,
        "name": "perpignan_parking_JOFFRE_avenue_Marechal_RD_88_zid08AY67HC",
        "station_id": "perpignan_parking_JOFFRE_avenue_Marechal_RD_88_zid08AY67HC"
      },
      {
        "is_virtual_station": true,
        "lat": 42.70268,
        "lon": 2.884979,
        "name": "perpignan_parking_TORCATIS_avenue_Louis_zidS1W4KREB",
        "station_id": "perpignan_parking_TORCATIS_avenue_Louis_zidS1W4KREB"
      },
      {
        "is_virtual_station": true,
        "lat": 42.703093,
        "lon": 2.886937,
        "name": "perpignan_parking_TORCATIS_avenue_Louis_zidMNKXEQAS",
        "station_id": "perpignan_parking_TORCATIS_avenue_Louis_zidMNKXEQAS"
      },
      {
        "is_virtual_station": true,
        "lat": 42.696633,
        "lon": 2.883407,
        "name": "perpignan_parking_MASSOT_rue_Paul_zidQ46PNN6E",
        "station_id": "perpignan_parking_MASSOT_rue_Paul_zidQ46PNN6E"
      },
      {
        "is_virtual_station": true,
        "lat": 42.696185,
        "lon": 2.883727,
        "name": "perpignan_parking_MASSOT_rue_Paul_zidUIWYB46D",
        "station_id": "perpignan_parking_MASSOT_rue_Paul_zidUIWYB46D"
      },
      {
        "is_virtual_station": true,
        "lat": 42.699426,
        "lon": 2.894782,
        "name": "perpignan_parking_LOGE_place_de_la_zidDXGL3EFH",
        "station_id": "perpignan_parking_LOGE_place_de_la_zidDXGL3EFH"
      },
      {
        "is_virtual_station": true,
        "lat": 42.699458,
        "lon": 2.894736,
        "name": "perpignan_parking_LOGE_place_de_la_zidLT100TEC",
        "station_id": "perpignan_parking_LOGE_place_de_la_zidLT100TEC"
      },
      {
        "is_virtual_station": true,
        "lat": 42.698383,
        "lon": 2.891433,
        "name": "perpignan_parking_NULL_zidMH0OIW26",
        "station_id": "perpignan_parking_NULL_zidMH0OIW26"
      },
      {
        "capacity": 2,
        "is_virtual_station": true,
        "lat": 42.696062,
        "lon": 2.880941,
        "name": "perpignan_parking_NULL_zidRJD12Y09",
        "station_id": "perpignan_parking_NULL_zidRJD12Y09"
      },
      {
        "is_virtual_station": true,
        "lat": 42.696258,
        "lon": 2.877904,
        "name": "perpignan_parking_MONNET_espace_Jean_zid2PRWS4XJ",
        "station_id": "perpignan_parking_MONNET_espace_Jean_zid2PRWS4XJ"
      },
      {
        "is_virtual_station": true,
        "lat": 42.69486159616844,
        "lon": 2.873185120212491,
        "name": "perpignan_parking_ARLEQUIN_parvis_zid0SFZ5USB",
        "station_id": "perpignan_parking_ARLEQUIN_parvis_zid0SFZ5USB"
      },
      {
        "is_virtual_station": true,
        "lat": 42.690343,
        "lon": 2.894184,
        "name": "perpignan_parking_PAMS_rue_Jules_zid5KKUDWC5",
        "station_id": "perpignan_parking_PAMS_rue_Jules_zid5KKUDWC5"
      },
      {
        "is_virtual_station": true,
        "lat": 42.690795,
        "lon": 2.890188,
        "name": "perpignan_parking_PARE_rue_Ambroise_zidBN9RC8KV",
        "station_id": "perpignan_parking_PARE_rue_Ambroise_zidBN9RC8KV"
      },
      {
        "is_virtual_station": true,
        "lat": 42.695668,
        "lon": 2.887345,
        "name": "perpignan_parking_LYCEE_avenue_du_zidKUUBYKYS",
        "station_id": "perpignan_parking_LYCEE_avenue_du_zidKUUBYKYS"
      },
      {
        "is_virtual_station": true,
        "lat": 42.693747,
        "lon": 2.890529,
        "name": "perpignan_parking_MERCADER_boulevard_Felix_zidDP8H4A8J",
        "station_id": "perpignan_parking_MERCADER_boulevard_Felix_zidDP8H4A8J"
      },
      {
        "is_virtual_station": true,
        "lat": 42.697246,
        "lon": 2.889967,
        "name": "perpignan_parking_BARCELONE_quai_de_zidVEER07H8",
        "station_id": "perpignan_parking_BARCELONE_quai_de_zidVEER07H8"
      },
      {
        "is_virtual_station": true,
        "lat": 42.696185,
        "lon": 2.890098,
        "name": "perpignan_parking_BAUSIL_allee_des_Freres_zid6NWTZP4P",
        "station_id": "perpignan_parking_BAUSIL_allee_des_Freres_zid6NWTZP4P"
      },
      {
        "is_virtual_station": true,
        "lat": 42.698305,
        "lon": 2.888629,
        "name": "perpignan_parking_PAYRA_place_Jean_zidHFA2S52G",
        "station_id": "perpignan_parking_PAYRA_place_Jean_zidHFA2S52G"
      },
      {
        "is_virtual_station": true,
        "lat": 42.698326,
        "lon": 2.889363,
        "name": "perpignan_parking_PAYRA_place_Jean_zidDOKJ3QRK",
        "station_id": "perpignan_parking_PAYRA_place_Jean_zidDOKJ3QRK"
      },
      {
        "is_virtual_station": true,
        "lat": 42.699137,
        "lon": 2.890552,
        "name": "perpignan_parking_BARDOU_JOB_place_Justin_zidKEPQIH3R",
        "station_id": "perpignan_parking_BARDOU_JOB_place_Justin_zidKEPQIH3R"
      },
      {
        "is_virtual_station": true,
        "lat": 42.699122,
        "lon": 2.893965,
        "name": "perpignan_parking_JAURES_place_Jean_zid310UOPA2",
        "station_id": "perpignan_parking_JAURES_place_Jean_zid310UOPA2"
      },
      {
        "is_virtual_station": true,
        "lat": 42.700419,
        "lon": 2.891857,
        "name": "perpignan_parking_RAMEIL_rue_Pierre_zidZ86AD624",
        "station_id": "perpignan_parking_RAMEIL_rue_Pierre_zidZ86AD624"
      },
      {
        "is_virtual_station": true,
        "lat": 42.701446,
        "lon": 2.894284,
        "name": "perpignan_parking_WILSON_boulevard_Thomas_zidN8D7MHSZ",
        "station_id": "perpignan_parking_WILSON_boulevard_Thomas_zidN8D7MHSZ"
      },
      {
        "is_virtual_station": true,
        "lat": 42.70132,
        "lon": 2.892955,
        "name": "perpignan_parking_RESISTANCE_place_de_la_zid95YGGYKU",
        "station_id": "perpignan_parking_RESISTANCE_place_de_la_zid95YGGYKU"
      },
      {
        "is_virtual_station": true,
        "lat": 42.701061,
        "lon": 2.892916,
        "name": "perpignan_parking_CLEMENCEAU_boulevard_Georges_zidAC16K59I",
        "station_id": "perpignan_parking_CLEMENCEAU_boulevard_Georges_zidAC16K59I"
      },
      {
        "is_virtual_station": true,
        "lat": 42.70019,
        "lon": 2.891296,
        "name": "perpignan_parking_DESMOULINS_rue_Camille_zid5Z69FY1O",
        "station_id": "perpignan_parking_DESMOULINS_rue_Camille_zid5Z69FY1O"
      },
      {
        "is_virtual_station": true,
        "lat": 42.700492,
        "lon": 2.890185,
        "name": "perpignan_parking_CLEMENCEAU_boulevard_Georges_zidBW62ZXQ9",
        "station_id": "perpignan_parking_CLEMENCEAU_boulevard_Georges_zidBW62ZXQ9"
      },
      {
        "is_virtual_station": true,
        "lat": 42.700774,
        "lon": 2.889198,
        "name": "perpignan_parking_LECLERC_avenue_Marechal_zid6D2A0CS7",
        "station_id": "perpignan_parking_LECLERC_avenue_Marechal_zid6D2A0CS7"
      },
      {
        "is_virtual_station": true,
        "lat": 42.701212,
        "lon": 2.889953,
        "name": "perpignan_parking_LECLERC_avenue_Marechal_zidR4GNOLIY",
        "station_id": "perpignan_parking_LECLERC_avenue_Marechal_zidR4GNOLIY"
      },
      {
        "is_virtual_station": true,
        "lat": 42.699451,
        "lon": 2.888855,
        "name": "perpignan_parking_CLEMENCEAU_boulevard_Georges_zid4ZATUPSI",
        "station_id": "perpignan_parking_CLEMENCEAU_boulevard_Georges_zid4ZATUPSI"
      },
      {
        "is_virtual_station": true,
        "lat": 42.698734,
        "lon": 2.878907,
        "name": "perpignan_parking_LULLI_rue_Jean_Baptiste_zidY09PJLA8",
        "station_id": "perpignan_parking_LULLI_rue_Jean_Baptiste_zidY09PJLA8"
      },
      {
        "is_virtual_station": true,
        "lat": 42.696721,
        "lon": 2.881342,
        "name": "perpignan_parking_GAULLE_avenue_General_de_zid0R3NYG96",
        "station_id": "perpignan_parking_GAULLE_avenue_General_de_zid0R3NYG96"
      },
      {
        "is_virtual_station": true,
        "lat": 42.696806,
        "lon": 2.881643,
        "name": "perpignan_parking_GAULLE_avenue_General_de_zidN3MIY70S",
        "station_id": "perpignan_parking_GAULLE_avenue_General_de_zidN3MIY70S"
      },
      {
        "is_virtual_station": true,
        "lat": 42.69674,
        "lon": 2.881712,
        "name": "perpignan_parking_GAULLE_avenue_General_de_zidMIQGOUK5",
        "station_id": "perpignan_parking_GAULLE_avenue_General_de_zidMIQGOUK5"
      },
      {
        "is_virtual_station": true,
        "lat": 42.697239,
        "lon": 2.883665,
        "name": "perpignan_parking_GAULLE_avenue_General_de_zidP88QIOEY",
        "station_id": "perpignan_parking_GAULLE_avenue_General_de_zidP88QIOEY"
      },
      {
        "is_virtual_station": true,
        "lat": 42.697408,
        "lon": 2.884348,
        "name": "perpignan_parking_GAULLE_avenue_General_de_zid6ZWIBDPE",
        "station_id": "perpignan_parking_GAULLE_avenue_General_de_zid6ZWIBDPE"
      },
      {
        "is_virtual_station": true,
        "lat": 42.697456,
        "lon": 2.884547,
        "name": "perpignan_parking_GAULLE_avenue_General_de_zidEXTN3BO3",
        "station_id": "perpignan_parking_GAULLE_avenue_General_de_zidEXTN3BO3"
      },
      {
        "is_virtual_station": true,
        "lat": 42.697577,
        "lon": 2.885009,
        "name": "perpignan_parking_GAULLE_avenue_General_de_zid3GLFJOTJ",
        "station_id": "perpignan_parking_GAULLE_avenue_General_de_zid3GLFJOTJ"
      },
      {
        "is_virtual_station": true,
        "lat": 42.697811,
        "lon": 2.88549,
        "name": "perpignan_parking_GAULLE_avenue_General_de_zid2WNORMW0",
        "station_id": "perpignan_parking_GAULLE_avenue_General_de_zid2WNORMW0"
      },
      {
        "is_virtual_station": true,
        "lat": 42.697637,
        "lon": 2.885254,
        "name": "perpignan_parking_GAULLE_avenue_General_de_zid1W0NMOOY",
        "station_id": "perpignan_parking_GAULLE_avenue_General_de_zid1W0NMOOY"
      },
      {
        "is_virtual_station": true,
        "lat": 42.697751,
        "lon": 2.885619,
        "name": "perpignan_parking_GAULLE_avenue_General_de_zidXO9UURZB",
        "station_id": "perpignan_parking_GAULLE_avenue_General_de_zidXO9UURZB"
      },
      {
        "is_virtual_station": true,
        "lat": 42.697866,
        "lon": 2.886059,
        "name": "perpignan_parking_GAULLE_avenue_General_de_zidDN85T8UO",
        "station_id": "perpignan_parking_GAULLE_avenue_General_de_zidDN85T8UO"
      },
      {
        "is_virtual_station": true,
        "lat": 42.696705,
        "lon": 2.888077,
        "name": "perpignan_parking_PYRENEES_boulevard_des_zidR4PCN1ZS",
        "station_id": "perpignan_parking_PYRENEES_boulevard_des_zidR4PCN1ZS"
      },
      {
        "is_virtual_station": true,
        "lat": 42.696709,
        "lon": 2.888266,
        "name": "perpignan_parking_PYRENEES_boulevard_des_zidIIK421TI",
        "station_id": "perpignan_parking_PYRENEES_boulevard_des_zidIIK421TI"
      },
      {
        "is_virtual_station": true,
        "lat": 42.69627,
        "lon": 2.889048,
        "name": "perpignan_parking_CORBIERES_rue_des_zid03AZQYGY",
        "station_id": "perpignan_parking_CORBIERES_rue_des_zid03AZQYGY"
      },
      {
        "is_virtual_station": true,
        "lat": 42.696432,
        "lon": 2.891922,
        "name": "perpignan_parking_LANTERNE_rue_de_la_zidBYAE9XLM",
        "station_id": "perpignan_parking_LANTERNE_rue_de_la_zidBYAE9XLM"
      },
      {
        "is_virtual_station": true,
        "lat": 42.696188,
        "lon": 2.891077,
        "name": "perpignan_parking_FOCH_rue_Marechal_zidHVLLLHD2",
        "station_id": "perpignan_parking_FOCH_rue_Marechal_zidHVLLLHD2"
      },
      {
        "is_virtual_station": true,
        "lat": 42.682657,
        "lon": 2.904283,
        "name": "perpignan_parking_VILAR_rue_du_zid8PWT264W",
        "station_id": "perpignan_parking_VILAR_rue_du_zid8PWT264W"
      },
      {
        "is_virtual_station": true,
        "lat": 42.696143,
        "lon": 2.898678,
        "name": "perpignan_parking_ESPLANADES_place_des_et_du_24eme_RIMa_zid77774Z3T",
        "station_id": "perpignan_parking_ESPLANADES_place_des_et_du_24eme_RIMa_zid77774Z3T"
      },
      {
        "is_virtual_station": true,
        "lat": 42.688798,
        "lon": 2.901776,
        "name": "perpignan_parking_BROUSSE_avenue_Robert_Emmanuel_zidE0B5X24P",
        "station_id": "perpignan_parking_BROUSSE_avenue_Robert_Emmanuel_zidE0B5X24P"
      },
      {
        "is_virtual_station": true,
        "lat": 42.679726,
        "lon": 2.910411,
        "name": "perpignan_parking_EUROPE_place_de_l__zidPOL8K3RU",
        "station_id": "perpignan_parking_EUROPE_place_de_l__zidPOL8K3RU"
      },
      {
        "is_virtual_station": true,
        "lat": 42.688796,
        "lon": 2.901811,
        "name": "perpignan_parking_BROUSSE_avenue_Robert_Emmanuel_zid3VKR9BV9",
        "station_id": "perpignan_parking_BROUSSE_avenue_Robert_Emmanuel_zid3VKR9BV9"
      },
      {
        "is_virtual_station": true,
        "lat": 42.694437,
        "lon": 2.904007,
        "name": "perpignan_parking_BOURGEOIS_rue_Leon_zid3IV7ZUB8",
        "station_id": "perpignan_parking_BOURGEOIS_rue_Leon_zid3IV7ZUB8"
      },
      {
        "is_virtual_station": true,
        "lat": 42.691496,
        "lon": 2.894993,
        "name": "perpignan_parking_POINCARE_boulevard_Henri_zid2VHGAHJ4",
        "station_id": "perpignan_parking_POINCARE_boulevard_Henri_zid2VHGAHJ4"
      },
      {
        "is_virtual_station": true,
        "lat": 42.690371,
        "lon": 2.899179,
        "name": "perpignan_parking_CARSALADE_DU_PONT_avenue_Jules_de_zid47T09JVE",
        "station_id": "perpignan_parking_CARSALADE_DU_PONT_avenue_Jules_de_zid47T09JVE"
      },
      {
        "is_virtual_station": true,
        "lat": 42.689649,
        "lon": 2.901617,
        "name": "perpignan_parking_BROUSSE_avenue_Robert_Emmanuel_zidI4X5B62I",
        "station_id": "perpignan_parking_BROUSSE_avenue_Robert_Emmanuel_zidI4X5B62I"
      },
      {
        "is_virtual_station": true,
        "lat": 42.689247,
        "lon": 2.901776,
        "name": "perpignan_parking_BROUSSE_avenue_Robert_Emmanuel_zidGT72XJC8",
        "station_id": "perpignan_parking_BROUSSE_avenue_Robert_Emmanuel_zidGT72XJC8"
      },
      {
        "is_virtual_station": true,
        "lat": 42.699677,
        "lon": 2.895182,
        "name": "perpignan_parking_MARCHANDS_rue_des_zidX8KC5SBG",
        "station_id": "perpignan_parking_MARCHANDS_rue_des_zidX8KC5SBG"
      },
      {
        "is_virtual_station": true,
        "lat": 42.699688,
        "lon": 2.895061,
        "name": "perpignan_parking_MARCHANDS_rue_des_zidOZYN8G1H",
        "station_id": "perpignan_parking_MARCHANDS_rue_des_zidOZYN8G1H"
      },
      {
        "is_virtual_station": true,
        "lat": 42.701326,
        "lon": 2.900777,
        "name": "perpignan_parking_BOURRAT_boulevard_Jean_zidE5CPB4IG",
        "station_id": "perpignan_parking_BOURRAT_boulevard_Jean_zidE5CPB4IG"
      },
      {
        "is_virtual_station": true,
        "lat": 42.693447,
        "lon": 2.900318,
        "name": "perpignan_parking_BRIAND_boulevard_Aristide_zidJEQIRFQI",
        "station_id": "perpignan_parking_BRIAND_boulevard_Aristide_zidJEQIRFQI"
      },
      {
        "is_virtual_station": true,
        "lat": 42.700842,
        "lon": 2.902215,
        "name": "perpignan_parking_BOURRAT_boulevard_Jean_zid6PZ0PSLO",
        "station_id": "perpignan_parking_BOURRAT_boulevard_Jean_zid6PZ0PSLO"
      },
      {
        "is_virtual_station": true,
        "lat": 42.702495,
        "lon": 2.895763,
        "name": "perpignan_parking_PALMAROLE_cours_Francois_zidCEIKR4RX",
        "station_id": "perpignan_parking_PALMAROLE_cours_Francois_zidCEIKR4RX"
      },
      {
        "is_virtual_station": true,
        "lat": 42.696476,
        "lon": 2.903275,
        "name": "perpignan_parking_BRIAND_boulevard_Aristide_zid8IEWP478",
        "station_id": "perpignan_parking_BRIAND_boulevard_Aristide_zid8IEWP478"
      },
      {
        "is_virtual_station": true,
        "lat": 42.695373,
        "lon": 2.902218,
        "name": "perpignan_parking_BRIAND_boulevard_Aristide_zidTE5UZICY",
        "station_id": "perpignan_parking_BRIAND_boulevard_Aristide_zidTE5UZICY"
      },
      {
        "is_virtual_station": true,
        "lat": 42.695527,
        "lon": 2.902498,
        "name": "perpignan_parking_BRIAND_boulevard_Aristide_zidOF44PZ5C",
        "station_id": "perpignan_parking_BRIAND_boulevard_Aristide_zidOF44PZ5C"
      },
      {
        "is_virtual_station": true,
        "lat": 42.694432,
        "lon": 2.901475,
        "name": "perpignan_parking_BRIAND_boulevard_Aristide_zid55PDCABD",
        "station_id": "perpignan_parking_BRIAND_boulevard_Aristide_zid55PDCABD"
      },
      {
        "is_virtual_station": true,
        "lat": 42.688463,
        "lon": 2.904482,
        "name": "perpignan_parking_KENNEDY_boulevard_John_Fitzgerald_zid965XN6HD",
        "station_id": "perpignan_parking_KENNEDY_boulevard_John_Fitzgerald_zid965XN6HD"
      },
      {
        "is_virtual_station": true,
        "lat": 42.686706,
        "lon": 2.906506,
        "name": "perpignan_parking_KENNEDY_boulevard_John_Fitzgerald_zidJP3OVQHD",
        "station_id": "perpignan_parking_KENNEDY_boulevard_John_Fitzgerald_zidJP3OVQHD"
      },
      {
        "is_virtual_station": true,
        "lat": 42.702088,
        "lon": 2.896752,
        "name": "perpignan_parking_WILSON_boulevard_Thomas_zid01BDMYEF",
        "station_id": "perpignan_parking_WILSON_boulevard_Thomas_zid01BDMYEF"
      },
      {
        "is_virtual_station": true,
        "lat": 42.702024,
        "lon": 2.896525,
        "name": "perpignan_parking_WILSON_boulevard_Thomas_zid19A8K83M",
        "station_id": "perpignan_parking_WILSON_boulevard_Thomas_zid19A8K83M"
      },
      {
        "is_virtual_station": true,
        "lat": 42.70189,
        "lon": 2.896012,
        "name": "perpignan_parking_WILSON_boulevard_Thomas_zidSRNVE6PI",
        "station_id": "perpignan_parking_WILSON_boulevard_Thomas_zidSRNVE6PI"
      },
      {
        "is_virtual_station": true,
        "lat": 42.695363,
        "lon": 2.905766,
        "name": "perpignan_parking_CAYROL_boulevard_Colonel_zid3WQ3OT8H",
        "station_id": "perpignan_parking_CAYROL_boulevard_Colonel_zid3WQ3OT8H"
      },
      {
        "is_virtual_station": true,
        "lat": 42.693662,
        "lon": 2.914175,
        "name": "perpignan_parking_MERMOZ_avenue_Jean_RD_22_zidLIY0WBLP",
        "station_id": "perpignan_parking_MERMOZ_avenue_Jean_RD_22_zidLIY0WBLP"
      },
      {
        "is_virtual_station": true,
        "lat": 42.684152,
        "lon": 2.901925,
        "name": "perpignan_parking_COURRIER_rue_du_zidRHQCT39W",
        "station_id": "perpignan_parking_COURRIER_rue_du_zidRHQCT39W"
      },
      {
        "is_virtual_station": true,
        "lat": 42.694164,
        "lon": 2.907326,
        "name": "perpignan_parking_PEGUY_rue_Charles_zid2HA6HAHB",
        "station_id": "perpignan_parking_PEGUY_rue_Charles_zid2HA6HAHB"
      },
      {
        "is_virtual_station": true,
        "lat": 42.696367,
        "lon": 2.902412,
        "name": "perpignan_parking_NULL_zidPEZVWEDT",
        "station_id": "perpignan_parking_NULL_zidPEZVWEDT"
      },
      {
        "is_virtual_station": true,
        "lat": 42.696895,
        "lon": 2.906252,
        "name": "perpignan_parking_NULL_zidRNMXQMK1",
        "station_id": "perpignan_parking_NULL_zidRNMXQMK1"
      },
      {
        "is_virtual_station": true,
        "lat": 42.691689,
        "lon": 2.912659,
        "name": "perpignan_parking_NULL_zidCDHPEVRD",
        "station_id": "perpignan_parking_NULL_zidCDHPEVRD"
      },
      {
        "is_virtual_station": true,
        "lat": 42.692874,
        "lon": 2.915628,
        "name": "perpignan_parking_BAUBY_place_Firmin_zidSHNFIUTR",
        "station_id": "perpignan_parking_BAUBY_place_Firmin_zidSHNFIUTR"
      },
      {
        "is_virtual_station": true,
        "lat": 42.688964,
        "lon": 2.915226,
        "name": "perpignan_parking_GIONO_avenue_Jean_zidTN7X4W3H",
        "station_id": "perpignan_parking_GIONO_avenue_Jean_zidTN7X4W3H"
      },
      {
        "is_virtual_station": true,
        "lat": 42.69193,
        "lon": 2.911948,
        "name": "perpignan_parking_NATURE_rue_zidG9XKA8P6",
        "station_id": "perpignan_parking_NATURE_rue_zidG9XKA8P6"
      },
      {
        "is_virtual_station": true,
        "lat": 42.684777,
        "lon": 2.90673,
        "name": "perpignan_parking_SARDANE_place_de_la_zid3NYKYLX7",
        "station_id": "perpignan_parking_SARDANE_place_de_la_zid3NYKYLX7"
      },
      {
        "is_virtual_station": true,
        "lat": 42.692456,
        "lon": 2.916595,
        "name": "perpignan_parking_MERMOZ_avenue_Jean_RD_22_zidY5WYQ6GM",
        "station_id": "perpignan_parking_MERMOZ_avenue_Jean_RD_22_zidY5WYQ6GM"
      },
      {
        "is_virtual_station": true,
        "lat": 42.68461,
        "lon": 2.90341,
        "name": "perpignan_parking_SAINT_MARSAL_square_de_zid4GFN7ZGF",
        "station_id": "perpignan_parking_SAINT_MARSAL_square_de_zid4GFN7ZGF"
      },
      {
        "is_virtual_station": true,
        "lat": 42.691498,
        "lon": 2.913658,
        "name": "perpignan_parking_SANT_VICENS_rue_zidKUECWY7J",
        "station_id": "perpignan_parking_SANT_VICENS_rue_zidKUECWY7J"
      },
      {
        "is_virtual_station": true,
        "lat": 42.696039,
        "lon": 2.902983,
        "name": "perpignan_parking_BRIAND_boulevard_Aristide_zid07KVYR2S",
        "station_id": "perpignan_parking_BRIAND_boulevard_Aristide_zid07KVYR2S"
      },
      {
        "is_virtual_station": true,
        "lat": 42.692517,
        "lon": 2.91355,
        "name": "perpignan_parking_NULL_zidT0HKG341",
        "station_id": "perpignan_parking_NULL_zidT0HKG341"
      },
      {
        "is_virtual_station": true,
        "lat": 42.69506,
        "lon": 2.901113,
        "name": "perpignan_parking_VIELLEDENT_rue_Jean_zid76AGD3EL",
        "station_id": "perpignan_parking_VIELLEDENT_rue_Jean_zid76AGD3EL"
      },
      {
        "is_virtual_station": true,
        "lat": 42.690351,
        "lon": 2.909727,
        "name": "perpignan_parking_CAMUS_avenue_Albert_zidYFCQ99WU",
        "station_id": "perpignan_parking_CAMUS_avenue_Albert_zidYFCQ99WU"
      },
      {
        "is_virtual_station": true,
        "lat": 42.696299,
        "lon": 2.908515,
        "name": "perpignan_parking_MERMOZ_avenue_Jean_RD_22_zid491DAY5Q",
        "station_id": "perpignan_parking_MERMOZ_avenue_Jean_RD_22_zid491DAY5Q"
      },
      {
        "is_virtual_station": true,
        "lat": 42.688568,
        "lon": 2.901789,
        "name": "perpignan_parking_POUNTET_DE_BAGES_rue_du_zidDYZ950QJ",
        "station_id": "perpignan_parking_POUNTET_DE_BAGES_rue_du_zidDYZ950QJ"
      },
      {
        "is_virtual_station": true,
        "lat": 42.689056,
        "lon": 2.903318,
        "name": "perpignan_parking_KENNEDY_boulevard_John_Fitzgerald_zidQNSOWYHC",
        "station_id": "perpignan_parking_KENNEDY_boulevard_John_Fitzgerald_zidQNSOWYHC"
      },
      {
        "is_virtual_station": true,
        "lat": 42.691429,
        "lon": 2.913537,
        "name": "perpignan_parking_SANT_VICENS_rue_zidIG45G1Z3",
        "station_id": "perpignan_parking_SANT_VICENS_rue_zidIG45G1Z3"
      },
      {
        "is_virtual_station": true,
        "lat": 42.697476,
        "lon": 2.904141,
        "name": "perpignan_parking_FRANCE_boulevard_Anatole_RD_82_et_617_zidZVT48UKX",
        "station_id": "perpignan_parking_FRANCE_boulevard_Anatole_RD_82_et_617_zidZVT48UKX"
      },
      {
        "is_virtual_station": true,
        "lat": 42.694783,
        "lon": 2.901653,
        "name": "perpignan_parking_BRIAND_boulevard_Aristide_zidI9FF4L88",
        "station_id": "perpignan_parking_BRIAND_boulevard_Aristide_zidI9FF4L88"
      },
      {
        "is_virtual_station": true,
        "lat": 42.69609,
        "lon": 2.902902,
        "name": "perpignan_parking_BRIAND_boulevard_Aristide_zid1PKMIDRS",
        "station_id": "perpignan_parking_BRIAND_boulevard_Aristide_zid1PKMIDRS"
      },
      {
        "is_virtual_station": true,
        "lat": 42.696439,
        "lon": 2.903236,
        "name": "perpignan_parking_BRIAND_boulevard_Aristide_zid46ITU0UV",
        "station_id": "perpignan_parking_BRIAND_boulevard_Aristide_zid46ITU0UV"
      },
      {
        "is_virtual_station": true,
        "lat": 42.698459,
        "lon": 2.904798,
        "name": "perpignan_parking_FRANCE_boulevard_Anatole_RD_82_et_617_zidMLMQ7KJI",
        "station_id": "perpignan_parking_FRANCE_boulevard_Anatole_RD_82_et_617_zidMLMQ7KJI"
      },
      {
        "is_virtual_station": true,
        "lat": 42.690817,
        "lon": 2.89893,
        "name": "perpignan_parking_CARSALADE_DU_PONT_avenue_Jules_de_zidIWO1SBNQ",
        "station_id": "perpignan_parking_CARSALADE_DU_PONT_avenue_Jules_de_zidIWO1SBNQ"
      },
      {
        "is_virtual_station": true,
        "lat": 42.698718,
        "lon": 2.896389,
        "name": "perpignan_parking_ARGENTERIE_rue_de_l__zidC7CQ4HAL",
        "station_id": "perpignan_parking_ARGENTERIE_rue_de_l__zidC7CQ4HAL"
      },
      {
        "is_virtual_station": true,
        "lat": 42.691016,
        "lon": 2.899053,
        "name": "perpignan_parking_CARSALADE_DU_PONT_avenue_Jules_de_zidBLBXESGN",
        "station_id": "perpignan_parking_CARSALADE_DU_PONT_avenue_Jules_de_zidBLBXESGN"
      },
      {
        "is_virtual_station": true,
        "lat": 42.699594,
        "lon": 2.898397,
        "name": "perpignan_parking_REVOLUTION_FRANCAISE_place_de_la_zidQ4IAMSXR",
        "station_id": "perpignan_parking_REVOLUTION_FRANCAISE_place_de_la_zidQ4IAMSXR"
      },
      {
        "is_virtual_station": true,
        "lat": 42.699607,
        "lon": 2.900894,
        "name": "perpignan_parking_RABELAIS_rue_Francois_zidYVFZV43E",
        "station_id": "perpignan_parking_RABELAIS_rue_Francois_zidYVFZV43E"
      },
      {
        "is_virtual_station": true,
        "lat": 42.699807,
        "lon": 2.901119,
        "name": "perpignan_parking_RABELAIS_rue_Francois_zidG3ROQ670",
        "station_id": "perpignan_parking_RABELAIS_rue_Francois_zidG3ROQ670"
      },
      {
        "is_virtual_station": true,
        "lat": 42.700602,
        "lon": 2.900995,
        "name": "perpignan_parking_MOLIERE_place_Jean_Baptiste_zidQQWEU84A",
        "station_id": "perpignan_parking_MOLIERE_place_Jean_Baptiste_zidQQWEU84A"
      },
      {
        "is_virtual_station": true,
        "lat": 42.700769,
        "lon": 2.900688,
        "name": "perpignan_parking_MOLIERE_place_Jean_Baptiste_zidC4ZVVA4A",
        "station_id": "perpignan_parking_MOLIERE_place_Jean_Baptiste_zidC4ZVVA4A"
      },
      {
        "is_virtual_station": true,
        "lat": 42.701153,
        "lon": 2.901319,
        "name": "perpignan_parking_BOURRAT_boulevard_Jean_zidFCS38JY3",
        "station_id": "perpignan_parking_BOURRAT_boulevard_Jean_zidFCS38JY3"
      },
      {
        "is_virtual_station": true,
        "lat": 42.700267,
        "lon": 2.896814,
        "name": "perpignan_parking_HORLOGE_rue_de_l__zidCSD5GBG8",
        "station_id": "perpignan_parking_HORLOGE_rue_de_l__zidCSD5GBG8"
      },
      {
        "is_virtual_station": true,
        "lat": 42.70162,
        "lon": 2.89987,
        "name": "perpignan_parking_BOURRAT_boulevard_Jean_zidXYAKXQB5",
        "station_id": "perpignan_parking_BOURRAT_boulevard_Jean_zidXYAKXQB5"
      },
      {
        "is_virtual_station": true,
        "lat": 42.701883,
        "lon": 2.899105,
        "name": "perpignan_parking_BOURRAT_boulevard_Jean_zid407COY55",
        "station_id": "perpignan_parking_BOURRAT_boulevard_Jean_zid407COY55"
      },
      {
        "is_virtual_station": true,
        "lat": 42.701189,
        "lon": 2.895179,
        "name": "perpignan_parking_ARC_rue_Jeanne_d__zid8SEHBQMM",
        "station_id": "perpignan_parking_ARC_rue_Jeanne_d__zid8SEHBQMM"
      },
      {
        "is_virtual_station": true,
        "lat": 42.701497,
        "lon": 2.896062,
        "name": "perpignan_parking_ARC_rue_Jeanne_d__zidFXU83R13",
        "station_id": "perpignan_parking_ARC_rue_Jeanne_d__zidFXU83R13"
      },
      {
        "is_virtual_station": true,
        "lat": 42.701734,
        "lon": 2.89536,
        "name": "perpignan_parking_WILSON_boulevard_Thomas_zidH7T4DMDG",
        "station_id": "perpignan_parking_WILSON_boulevard_Thomas_zidH7T4DMDG"
      },
      {
        "is_virtual_station": true,
        "lat": 42.689074,
        "lon": 2.911472,
        "name": "perpignan_parking_RIBOT_rue_Alexandre_zidGU48BDWJ",
        "station_id": "perpignan_parking_RIBOT_rue_Alexandre_zidGU48BDWJ"
      },
      {
        "is_virtual_station": true,
        "lat": 42.702194,
        "lon": 2.894988,
        "name": "perpignan_parking_CAYROL_place_Colonel_zidTPHV6NK8",
        "station_id": "perpignan_parking_CAYROL_place_Colonel_zidTPHV6NK8"
      },
      {
        "is_virtual_station": true,
        "lat": 42.696887,
        "lon": 2.904326,
        "name": "perpignan_parking_MERMOZ_avenue_Jean_RD_22_zidZU17GGJ6",
        "station_id": "perpignan_parking_MERMOZ_avenue_Jean_RD_22_zidZU17GGJ6"
      },
      {
        "is_virtual_station": true,
        "lat": 42.700872,
        "lon": 2.894999,
        "name": "perpignan_parking_CASTILLET_rue_du_zidLK2F7M8G",
        "station_id": "perpignan_parking_CASTILLET_rue_du_zidLK2F7M8G"
      },
      {
        "is_virtual_station": true,
        "lat": 42.700522,
        "lon": 2.894054,
        "name": "perpignan_parking_VERDUN_place_de_zidBZGTY0RU",
        "station_id": "perpignan_parking_VERDUN_place_de_zidBZGTY0RU"
      },
      {
        "is_virtual_station": true,
        "lat": 42.689901,
        "lon": 2.900827,
        "name": "perpignan_parking_ORNANO_place_Colonel_d__zidJQ2TBQ2C",
        "station_id": "perpignan_parking_ORNANO_place_Colonel_d__zidJQ2TBQ2C"
      },
      {
        "is_virtual_station": true,
        "lat": 42.702908,
        "lon": 2.898724,
        "name": "perpignan_parking_HUIT_MAI_1945_place_du_zid5ZUVBR2W",
        "station_id": "perpignan_parking_HUIT_MAI_1945_place_du_zid5ZUVBR2W"
      },
      {
        "is_virtual_station": true,
        "lat": 42.702712,
        "lon": 2.898956,
        "name": "perpignan_parking_LANOUX_place_Armand_zid59IXUH61",
        "station_id": "perpignan_parking_LANOUX_place_Armand_zid59IXUH61"
      },
      {
        "is_virtual_station": true,
        "lat": 42.700228,
        "lon": 2.889328,
        "name": "perpignan_parking_CLEMENCEAU_boulevard_Georges_zid7U6AT0WT",
        "station_id": "perpignan_parking_CLEMENCEAU_boulevard_Georges_zid7U6AT0WT"
      },
      {
        "is_virtual_station": true,
        "lat": 42.693601,
        "lon": 2.894113,
        "name": "perpignan_parking_PUIG_place_du_Docteur_Rene_zidOXUFCRRQ",
        "station_id": "perpignan_parking_PUIG_place_du_Docteur_Rene_zidOXUFCRRQ"
      },
      {
        "is_virtual_station": true,
        "lat": 42.698497,
        "lon": 2.89572,
        "name": "perpignan_parking_REPUBLIQUE_place_de_la_zidFKFRKT7W",
        "station_id": "perpignan_parking_REPUBLIQUE_place_de_la_zidFKFRKT7W"
      },
      {
        "is_virtual_station": true,
        "lat": 42.698764,
        "lon": 2.888264,
        "name": "perpignan_parking_CLEMENCEAU_boulevard_Georges_zid7UEYZY1Y",
        "station_id": "perpignan_parking_CLEMENCEAU_boulevard_Georges_zid7UEYZY1Y"
      },
      {
        "is_virtual_station": true,
        "lat": 42.699338,
        "lon": 2.889578,
        "name": "perpignan_parking_PELLETAN_rue_Camille_zid4ADPOZ1X",
        "station_id": "perpignan_parking_PELLETAN_rue_Camille_zid4ADPOZ1X"
      },
      {
        "is_virtual_station": true,
        "lat": 42.69746,
        "lon": 2.892413,
        "name": "perpignan_parking_PONT_D_EN_VESTIT_place_du_zid77OTP6VD",
        "station_id": "perpignan_parking_PONT_D_EN_VESTIT_place_du_zid77OTP6VD"
      },
      {
        "is_virtual_station": true,
        "lat": 42.678063,
        "lon": 2.904461,
        "name": "perpignan_parking_ALDUY_avenue_Paul___ex_avenue_de_VILLENEUVE_zidFSJU2CYY",
        "station_id": "perpignan_parking_ALDUY_avenue_Paul___ex_avenue_de_VILLENEUVE_zidFSJU2CYY"
      },
      {
        "is_virtual_station": true,
        "lat": 42.67686,
        "lon": 2.904966,
        "name": "perpignan_parking_ALDUY_avenue_Paul___ex_avenue_de_VILLENEUVE_zidVJ2UPEDJ",
        "station_id": "perpignan_parking_ALDUY_avenue_Paul___ex_avenue_de_VILLENEUVE_zidVJ2UPEDJ"
      },
      {
        "is_virtual_station": true,
        "lat": 42.71627,
        "lon": 2.892259,
        "name": "perpignan_parking_NICOLAU_rue_Docteur_Pierre_zidO1PRW613",
        "station_id": "perpignan_parking_NICOLAU_rue_Docteur_Pierre_zidO1PRW613"
      },
      {
        "is_virtual_station": true,
        "lat": 42.716279,
        "lon": 2.892299,
        "name": "perpignan_parking_NICOLAU_rue_Docteur_Pierre_zidXHIZDYB7",
        "station_id": "perpignan_parking_NICOLAU_rue_Docteur_Pierre_zidXHIZDYB7"
      },
      {
        "is_virtual_station": true,
        "lat": 42.716215,
        "lon": 2.892209,
        "name": "perpignan_parking_NICOLAU_rue_Docteur_Pierre_zidXPU2A4I4",
        "station_id": "perpignan_parking_NICOLAU_rue_Docteur_Pierre_zidXPU2A4I4"
      },
      {
        "is_virtual_station": true,
        "lat": 42.722537,
        "lon": 2.886309,
        "name": "perpignan_parking_MERIDIEN_rue_du_zid2BN8IQV2",
        "station_id": "perpignan_parking_MERIDIEN_rue_du_zid2BN8IQV2"
      },
      {
        "is_virtual_station": true,
        "lat": 42.701782,
        "lon": 2.891142,
        "name": "perpignan_parking_LECLERC_avenue_Marechal_zidEOP61YHB",
        "station_id": "perpignan_parking_LECLERC_avenue_Marechal_zidEOP61YHB"
      },
      {
        "is_virtual_station": true,
        "lat": 42.722743,
        "lon": 2.887746,
        "name": "perpignan_parking_LANGUEDOC_avenue_du_RD_88_zidM57I1XIK",
        "station_id": "perpignan_parking_LANGUEDOC_avenue_du_RD_88_zidM57I1XIK"
      },
      {
        "is_virtual_station": true,
        "lat": 42.669645,
        "lon": 2.881338,
        "name": "perpignan_parking_Moto_Auchan_Sud_zidTIWZ41V3",
        "station_id": "perpignan_parking_Moto_Auchan_Sud_zidTIWZ41V3"
      },
      {
        "is_virtual_station": true,
        "lat": 42.70182608571255,
        "lon": 2.9459939526432684,
        "name": "perpignan_parking_BikeRack_Carrefour_Est_zidCR503XGA",
        "station_id": "perpignan_parking_BikeRack_Carrefour_Est_zidCR503XGA"
      },
      {
        "is_virtual_station": true,
        "lat": 42.686848,
        "lon": 2.907362,
        "name": "perpignan_parking_BikeRack_Mcdo_Kennedy_zidAQVTUEHX",
        "station_id": "perpignan_parking_BikeRack_Mcdo_Kennedy_zidAQVTUEHX"
      },
      {
        "is_virtual_station": true,
        "lat": 42.669576463795295,
        "lon": 2.883987542580179,
        "name": "perpignan_parking_BikeRack_Mcdo_espagne_zid062H3QHC",
        "station_id": "perpignan_parking_BikeRack_Mcdo_espagne_zid062H3QHC"
      },
      {
        "is_virtual_station": true,
        "lat": 42.69335457403828,
        "lon": 2.8465134085332413,
        "name": "perpignan_parking_BikeRack_Mcdo_Ouest_zidRZ5XY3D7",
        "station_id": "perpignan_parking_BikeRack_Mcdo_Ouest_zidRZ5XY3D7"
      },
      {
        "is_virtual_station": true,
        "lat": 42.68816024629403,
        "lon": 2.92390852635326,
        "name": "perpignan_parking_BurgerKing_Est_zid1UHV5CR0",
        "station_id": "perpignan_parking_BurgerKing_Est_zid1UHV5CR0"
      },
      {
        "is_virtual_station": true,
        "lat": 42.68820068028164,
        "lon": 2.923796736453979,
        "name": "perpignan_parking_BurgerKing_Est_2_zid7UR6B1G8",
        "station_id": "perpignan_parking_BurgerKing_Est_2_zid7UR6B1G8"
      },
      {
        "is_virtual_station": true,
        "lat": 42.698309,
        "lon": 2.872134,
        "name": "perpignan_parking_BikeRack_Av_prade_64_zidAOSCWTID",
        "station_id": "perpignan_parking_BikeRack_Av_prade_64_zidAOSCWTID"
      },
      {
        "is_virtual_station": true,
        "lat": 42.6940531,
        "lon": 2.8851748,
        "name": "perpignan_parking_BikeRack_Doumer_16_zidA42N6382",
        "station_id": "perpignan_parking_BikeRack_Doumer_16_zidA42N6382"
      },
      {
        "is_virtual_station": true,
        "lat": 42.6911738,
        "lon": 2.886297,
        "name": "perpignan_parking_BikeRack_Rodin_31_zidDL1QW67R",
        "station_id": "perpignan_parking_BikeRack_Rodin_31_zidDL1QW67R"
      },
      {
        "is_virtual_station": true,
        "lat": 42.693037,
        "lon": 2.887728,
        "name": "perpignan_parking_BikeRack_Dalbiez_18_zidCDXYV77T",
        "station_id": "perpignan_parking_BikeRack_Dalbiez_18_zidCDXYV77T"
      },
      {
        "is_virtual_station": true,
        "lat": 42.6954055,
        "lon": 2.9021904,
        "name": "perpignan_parking_BikeRack_Aristide_Briand_24_zidX8R3QQLS",
        "station_id": "perpignan_parking_BikeRack_Aristide_Briand_24_zidX8R3QQLS"
      },
      {
        "is_virtual_station": true,
        "lat": 42.6816344,
        "lon": 2.8946028,
        "name": "perpignan_parking_BikeRack_Quick_Sud_zidTZM9JAEK",
        "station_id": "perpignan_parking_BikeRack_Quick_Sud_zidTZM9JAEK"
      },
      {
        "is_virtual_station": true,
        "lat": 42.6904254,
        "lon": 2.9095229,
        "name": "perpignan_parking_BikeRack_Albert_Camus_zidJ4UTBAFS",
        "station_id": "perpignan_parking_BikeRack_Albert_Camus_zidJ4UTBAFS"
      },
      {
        "is_virtual_station": true,
        "lat": 42.6772313819688,
        "lon": 2.9079047632944652,
        "name": "perpignan_parking_BikeRack_Can_Partere_zidZZ227YOO",
        "station_id": "perpignan_parking_BikeRack_Can_Partere_zidZZ227YOO"
      },
      {
        "is_virtual_station": true,
        "lat": 42.6855076,
        "lon": 2.9079484,
        "name": "perpignan_parking_BikeRack_Saint_Cyprien_zidL7IRNSCC",
        "station_id": "perpignan_parking_BikeRack_Saint_Cyprien_zidL7IRNSCC"
      },
      {
        "is_virtual_station": true,
        "lat": 42.681252631528395,
        "lon": 2.8933004133169025,
        "name": "perpignan_parking_Bikerack_KFC_Espagne_zidCSYMN5WV",
        "station_id": "perpignan_parking_Bikerack_KFC_Espagne_zidCSYMN5WV"
      },
      {
        "is_virtual_station": true,
        "lat": 42.696566710521076,
        "lon": 2.888099973142513,
        "name": "perpignan_parking_BikeRack_3_Pyrenees_zid9CSUBCGN",
        "station_id": "perpignan_parking_BikeRack_3_Pyrenees_zid9CSUBCGN"
      },
      {
        "is_virtual_station": true,
        "lat": 42.686214,
        "lon": 2.907934,
        "name": "perpignan_parking_BikeRack_Lidl_centre_zidKGHYIDOP",
        "station_id": "perpignan_parking_BikeRack_Lidl_centre_zidKGHYIDOP"
      },
      {
        "is_virtual_station": true,
        "lat": 42.741618185347484,
        "lon": 2.893447086642214,
        "name": "perpignan_parking_BikeRack_Leclerc_Nord_zidKDLYENJ5",
        "station_id": "perpignan_parking_BikeRack_Leclerc_Nord_zidKDLYENJ5"
      },
      {
        "is_virtual_station": true,
        "lat": 42.732813990032824,
        "lon": 2.889791663707778,
        "name": "perpignan_parking_BikeRack_BK_Nord_zidU9J1O2AG",
        "station_id": "perpignan_parking_BikeRack_BK_Nord_zidU9J1O2AG"
      },
      {
        "is_virtual_station": true,
        "lat": 42.72672316424561,
        "lon": 2.9016691722041625,
        "name": "perpignan_parking_BikeRack_Aldi_Nord_zidOE7SX56R",
        "station_id": "perpignan_parking_BikeRack_Aldi_Nord_zidOE7SX56R"
      },
      {
        "is_virtual_station": true,
        "lat": 42.674515192686485,
        "lon": 2.8887899548646745,
        "name": "perpignan_parking_BikeRack_BK_Sud_zidGS9NRNUJ",
        "station_id": "perpignan_parking_BikeRack_BK_Sud_zidGS9NRNUJ"
      },
      {
        "is_virtual_station": true,
        "lat": 42.67899689905759,
        "lon": 2.892547084027367,
        "name": "perpignan_parking_Marquage_Moto_Orange_Sud_zid2M2ORM7O",
        "station_id": "perpignan_parking_Marquage_Moto_Orange_Sud_zid2M2ORM7O"
      },
      {
        "is_virtual_station": true,
        "lat": 42.705168820363035,
        "lon": 2.9053944101883498,
        "name": "perpignan_parking_BikeRack_Platanes_zidJ9QTPDT0",
        "station_id": "perpignan_parking_BikeRack_Platanes_zidJ9QTPDT0"
      },
      {
        "is_virtual_station": true,
        "lat": 42.7040636498222,
        "lon": 2.9023567617860384,
        "name": "perpignan_parking_BikeRack_Claude_Bernard_zidV8EGNPZ7",
        "station_id": "perpignan_parking_BikeRack_Claude_Bernard_zidV8EGNPZ7"
      },
      {
        "is_virtual_station": true,
        "lat": 42.70107408761852,
        "lon": 2.940050902225947,
        "name": "perpignan_parking_BikeRack_KeepCool_zidENGW50R6",
        "station_id": "perpignan_parking_BikeRack_KeepCool_zidENGW50R6"
      },
      {
        "is_virtual_station": true,
        "lat": 42.692595,
        "lon": 2.919551,
        "name": "perpignan_parking_BikeRack_Intermarche_zidNMYT57Q8",
        "station_id": "perpignan_parking_BikeRack_Intermarche_zidNMYT57Q8"
      },
      {
        "is_virtual_station": true,
        "lat": 42.69238234479777,
        "lon": 2.9195416639363563,
        "name": "perpignan_parking_BikeRack_Intermarche_2_zidP9IUJNL7",
        "station_id": "perpignan_parking_BikeRack_Intermarche_2_zidP9IUJNL7"
      },
      {
        "is_virtual_station": true,
        "lat": 42.696336004203204,
        "lon": 2.915839173053397,
        "name": "perpignan_parking_BikeRack_Embruns_zidZAXQVE5R",
        "station_id": "perpignan_parking_BikeRack_Embruns_zidZAXQVE5R"
      },
      {
        "is_virtual_station": true,
        "lat": 42.69672222476507,
        "lon": 2.9148345055181073,
        "name": "perpignan_parking_BikeRack_Jardin_du_grand_large_zidQCJRNGY1",
        "station_id": "perpignan_parking_BikeRack_Jardin_du_grand_large_zidQCJRNGY1"
      },
      {
        "is_virtual_station": true,
        "lat": 42.696127031115715,
        "lon": 2.915821336732786,
        "name": "perpignan_parking_BikeRack_3_Embruns_zidK3W1PJ5B",
        "station_id": "perpignan_parking_BikeRack_3_Embruns_zidK3W1PJ5B"
      },
      {
        "is_virtual_station": true,
        "lat": 42.69656591153094,
        "lon": 2.915832463607993,
        "name": "perpignan_parking_BikeRack_8_Embruns_zidLCFIJ9VS",
        "station_id": "perpignan_parking_BikeRack_8_Embruns_zidLCFIJ9VS"
      },
      {
        "is_virtual_station": true,
        "lat": 42.698013927942014,
        "lon": 2.9174889454924986,
        "name": "perpignan_parking_BikeRack_Ressac_zid114MVSBJ",
        "station_id": "perpignan_parking_BikeRack_Ressac_zid114MVSBJ"
      },
      {
        "is_virtual_station": true,
        "lat": 42.69823535861022,
        "lon": 2.9162173958456004,
        "name": "perpignan_parking_BikeRack_Mairie_Est_zidWJGWII40",
        "station_id": "perpignan_parking_BikeRack_Mairie_Est_zidWJGWII40"
      },
      {
        "is_virtual_station": true,
        "lat": 42.69877,
        "lon": 2.88791,
        "name": "perpignan_parking_1_place_de_Catalogne_zid6KZHZ8U3",
        "station_id": "perpignan_parking_1_place_de_Catalogne_zid6KZHZ8U3"
      },
      {
        "is_virtual_station": true,
        "lat": 42.69829,
        "lon": 2.88828,
        "name": "perpignan_parking_5_place_de_Catalogne_zidQ28WCWXJ",
        "station_id": "perpignan_parking_5_place_de_Catalogne_zidQ28WCWXJ"
      },
      {
        "is_virtual_station": true,
        "lat": 42.69857,
        "lon": 2.88964,
        "name": "perpignan_parking_2_place_Jean_Payra_zidQI639RTG",
        "station_id": "perpignan_parking_2_place_Jean_Payra_zidQI639RTG"
      },
      {
        "is_virtual_station": true,
        "lat": 42.69859,
        "lon": 2.89157,
        "name": "perpignan_parking_Place_Gabriel_Peri_zid21R4RQR9",
        "station_id": "perpignan_parking_Place_Gabriel_Peri_zid21R4RQR9"
      },
      {
        "is_virtual_station": true,
        "lat": 42.70082,
        "lon": 2.89153,
        "name": "perpignan_parking_18_boulevard_Clemenceau_zidOOGIM97Q",
        "station_id": "perpignan_parking_18_boulevard_Clemenceau_zidOOGIM97Q"
      },
      {
        "is_virtual_station": true,
        "lat": 42.69618,
        "lon": 2.88036,
        "name": "perpignan_parking_Gare_cote_ville__zidAFGZY4M4",
        "station_id": "perpignan_parking_Gare_cote_ville__zidAFGZY4M4"
      },
      {
        "is_virtual_station": true,
        "lat": 42.70147,
        "lon": 2.8929,
        "name": "perpignan_parking_2_Boulevard_Georges_Clemenceau_zidLFDPB94B",
        "station_id": "perpignan_parking_2_Boulevard_Georges_Clemenceau_zidLFDPB94B"
      },
      {
        "is_virtual_station": true,
        "lat": 42.69718,
        "lon": 2.88288,
        "name": "perpignan_parking_21_Avenue_General_de_Gaulle_zidB5D6OZSE",
        "station_id": "perpignan_parking_21_Avenue_General_de_Gaulle_zidB5D6OZSE"
      },
      {
        "is_virtual_station": true,
        "lat": 42.69581,
        "lon": 2.87828,
        "name": "perpignan_parking_12_boulevard_Saint_Assiscle_zid5UIS3RBV",
        "station_id": "perpignan_parking_12_boulevard_Saint_Assiscle_zid5UIS3RBV"
      },
      {
        "is_virtual_station": true,
        "lat": 42.69805,
        "lon": 2.88633,
        "name": "perpignan_parking_51_Avenue_du_General_de_Gaulle_zid65PWRN8H",
        "station_id": "perpignan_parking_51_Avenue_du_General_de_Gaulle_zid65PWRN8H"
      },
      {
        "is_virtual_station": true,
        "lat": 42.6943237,
        "lon": 2.8681801,
        "name": "perpignan_parking_47___1_Rue_Frantz_Reichel_zidVDCAEF2Y",
        "station_id": "perpignan_parking_47___1_Rue_Frantz_Reichel_zidVDCAEF2Y"
      },
      {
        "is_virtual_station": true,
        "lat": 42.6954196,
        "lon": 2.8783145,
        "name": "perpignan_parking_36___14_boulevard_Saint_Assiscle_zid95J75AF0",
        "station_id": "perpignan_parking_36___14_boulevard_Saint_Assiscle_zid95J75AF0"
      },
      {
        "is_virtual_station": true,
        "lat": 42.68938,
        "lon": 2.86888,
        "name": "perpignan_parking_49___3_Impasse_Vigneronne_zidYQ7GEQGG",
        "station_id": "perpignan_parking_49___3_Impasse_Vigneronne_zidYQ7GEQGG"
      },
      {
        "is_virtual_station": true,
        "lat": 42.6919425,
        "lon": 2.8658372,
        "name": "perpignan_parking_48___3_Rue_Jules_Ladoumegue_zid6GXJPWY5",
        "station_id": "perpignan_parking_48___3_Rue_Jules_Ladoumegue_zid6GXJPWY5"
      },
      {
        "is_virtual_station": true,
        "lat": 42.69522,
        "lon": 2.87855,
        "name": "perpignan_parking_37___16_boulevard_Saint_Assiscle_zid8KIXS683",
        "station_id": "perpignan_parking_37___16_boulevard_Saint_Assiscle_zid8KIXS683"
      },
      {
        "is_virtual_station": true,
        "lat": 42.6948962,
        "lon": 2.8789037,
        "name": "perpignan_parking_38___33_boulevard_Saint_Assiscle_zidRR0Z16RK",
        "station_id": "perpignan_parking_38___33_boulevard_Saint_Assiscle_zidRR0Z16RK"
      },
      {
        "is_virtual_station": true,
        "lat": 42.6942783,
        "lon": 2.869063,
        "name": "perpignan_parking_46___64_Rue_Pascal_Marie_Agasse_zidCRG7WW3Q",
        "station_id": "perpignan_parking_46___64_Rue_Pascal_Marie_Agasse_zidCRG7WW3Q"
      },
      {
        "is_virtual_station": true,
        "lat": 42.6997127674016,
        "lon": 2.88512538452452,
        "name": "perpignan_parking_29___Avenue_de_Grande_Bretagne__zid6UMZJ7GA",
        "station_id": "perpignan_parking_29___Avenue_de_Grande_Bretagne__zid6UMZJ7GA"
      },
      {
        "is_virtual_station": true,
        "lat": 42.693678,
        "lon": 2.8766194,
        "name": "perpignan_parking_39___22_Res_des_Alberes_zid3XD6TAN1",
        "station_id": "perpignan_parking_39___22_Res_des_Alberes_zid3XD6TAN1"
      },
      {
        "is_virtual_station": true,
        "lat": 42.69119,
        "lon": 2.87623,
        "name": "perpignan_parking_42___231_Avenue_de_l_Abbe_Pierre_zidQZT5S6HF",
        "station_id": "perpignan_parking_42___231_Avenue_de_l_Abbe_Pierre_zidQZT5S6HF"
      },
      {
        "is_virtual_station": true,
        "lat": 42.696382,
        "lon": 2.887047,
        "name": "perpignan_parking_34___Lycee_Arago_zid2HO8XR6R",
        "station_id": "perpignan_parking_34___Lycee_Arago_zid2HO8XR6R"
      },
      {
        "is_virtual_station": true,
        "lat": 42.69028,
        "lon": 2.87307,
        "name": "perpignan_parking_43___35_avenue_de_l_Abbe_Pierre_zid795PT9N8",
        "station_id": "perpignan_parking_43___35_avenue_de_l_Abbe_Pierre_zid795PT9N8"
      },
      {
        "is_virtual_station": true,
        "lat": 42.732822611232486,
        "lon": 2.8889393499188043,
        "name": "perpignan_parking_BikeRack_Gifi_zidKQEEB0HZ",
        "station_id": "perpignan_parking_BikeRack_Gifi_zidKQEEB0HZ"
      },
      {
        "is_virtual_station": true,
        "lat": 42.6943249362127,
        "lon": 2.87221090934753,
        "name": "perpignan_parking_45___5_Place_Yves_du_Manoir_zidRKJ75Q81",
        "station_id": "perpignan_parking_45___5_Place_Yves_du_Manoir_zidRKJ75Q81"
      },
      {
        "is_virtual_station": true,
        "lat": 42.6919087902053,
        "lon": 2.8726510021509,
        "name": "perpignan_parking_44___38_Avenue_Dr_Jean_Louis_Torreilles_zidZFXTBJE3",
        "station_id": "perpignan_parking_44___38_Avenue_Dr_Jean_Louis_Torreilles_zidZFXTBJE3"
      },
      {
        "is_virtual_station": true,
        "lat": 42.702981,
        "lon": 2.900254,
        "name": "perpignan_parking_18___43_Cours_Marie_Louis_de_Lassus_zid5Z1HPIKY",
        "station_id": "perpignan_parking_18___43_Cours_Marie_Louis_de_Lassus_zid5Z1HPIKY"
      },
      {
        "is_virtual_station": true,
        "lat": 42.7010761759418,
        "lon": 2.90168593475989,
        "name": "perpignan_parking_19___18_boulevard_Jean_Bourrat_zidXPIS89M0",
        "station_id": "perpignan_parking_19___18_boulevard_Jean_Bourrat_zidXPIS89M0"
      },
      {
        "is_virtual_station": true,
        "lat": 42.694641,
        "lon": 2.908333,
        "name": "perpignan_parking_BikeRack_Paul_Valery_zid79JFNGMU",
        "station_id": "perpignan_parking_BikeRack_Paul_Valery_zid79JFNGMU"
      },
      {
        "is_virtual_station": true,
        "lat": 42.687496772225735,
        "lon": 2.8841601339513168,
        "name": "perpignan_parking_BikeRack_Leclerc_Sud__zidR2NKWXSF",
        "station_id": "perpignan_parking_BikeRack_Leclerc_Sud__zidR2NKWXSF"
      },
      {
        "is_virtual_station": true,
        "lat": 42.6867357973682,
        "lon": 2.883595923278601,
        "name": "perpignan_parking_BikeRack_Leclerc_Sud_3_zid6PJSCF2A",
        "station_id": "perpignan_parking_BikeRack_Leclerc_Sud_3_zid6PJSCF2A"
      },
      {
        "is_virtual_station": true,
        "lat": 42.68670150191064,
        "lon": 2.8835124417400135,
        "name": "perpignan_parking_Moto_Leclerc_Sud_2_zidC9EPLGQM",
        "station_id": "perpignan_parking_Moto_Leclerc_Sud_2_zidC9EPLGQM"
      },
      {
        "is_virtual_station": true,
        "lat": 42.663332,
        "lon": 2.90868,
        "name": "perpignan_parking_BikeRack_AV_Eole_zid6OKDLZ2B",
        "station_id": "perpignan_parking_BikeRack_AV_Eole_zid6OKDLZ2B"
      },
      {
        "is_virtual_station": true,
        "lat": 42.70144,
        "lon": 2.89429,
        "name": "perpignan_parking_15__1_Boulevard_Wilson_zidXLTCX4PN",
        "station_id": "perpignan_parking_15__1_Boulevard_Wilson_zidXLTCX4PN"
      },
      {
        "is_virtual_station": true,
        "lat": 42.70216,
        "lon": 2.89703,
        "name": "perpignan_parking_16___13_Boulevard_Thomas_Wilson_zidABW3UH02",
        "station_id": "perpignan_parking_16___13_Boulevard_Thomas_Wilson_zidABW3UH02"
      },
      {
        "is_virtual_station": true,
        "lat": 42.701816798041,
        "lon": 2.89118990206825,
        "name": "perpignan_parking_13___24_Avenue_Marechal_Leclerc_zidGWT3D810",
        "station_id": "perpignan_parking_13___24_Avenue_Marechal_Leclerc_zidGWT3D810"
      },
      {
        "is_virtual_station": true,
        "lat": 42.7007333183238,
        "lon": 2.88940813213695,
        "name": "perpignan_parking_11___2_Rue_Gustave_Flaubert_zidMN11NWCS",
        "station_id": "perpignan_parking_11___2_Rue_Gustave_Flaubert_zidMN11NWCS"
      },
      {
        "is_virtual_station": true,
        "lat": 42.70061,
        "lon": 2.89234,
        "name": "perpignan_parking_6___9_Rue_Rempart_Villeneuve_zid8N9BWBUJ",
        "station_id": "perpignan_parking_6___9_Rue_Rempart_Villeneuve_zid8N9BWBUJ"
      },
      {
        "is_virtual_station": true,
        "lat": 42.69958,
        "lon": 2.8901,
        "name": "perpignan_parking_5___32_rue_rempart_Villeneuve_zid88ZKTLV9",
        "station_id": "perpignan_parking_5___32_rue_rempart_Villeneuve_zid88ZKTLV9"
      },
      {
        "is_virtual_station": true,
        "lat": 42.676146,
        "lon": 2.908912,
        "name": "perpignan_parking_BikeRack_Roure_zidS7VSIA90",
        "station_id": "perpignan_parking_BikeRack_Roure_zidS7VSIA90"
      },
      {
        "is_virtual_station": true,
        "lat": 42.667271582525046,
        "lon": 2.8960582669218016,
        "name": "perpignan_parking_BikeRack_Lidl_Sud_zidD8F2U0WD",
        "station_id": "perpignan_parking_BikeRack_Lidl_Sud_zidD8F2U0WD"
      },
      {
        "is_virtual_station": true,
        "lat": 42.673027,
        "lon": 2.888105,
        "name": "perpignan_parking_BikeRack_Grand_Frais_zidFEW5FGWW",
        "station_id": "perpignan_parking_BikeRack_Grand_Frais_zidFEW5FGWW"
      },
      {
        "is_virtual_station": true,
        "lat": 42.668559070121454,
        "lon": 2.8781272243749494,
        "name": "perpignan_parking_BikeRack_Boulanger_zidYZNRAB0M",
        "station_id": "perpignan_parking_BikeRack_Boulanger_zidYZNRAB0M"
      },
      {
        "is_virtual_station": true,
        "lat": 42.66917039297078,
        "lon": 2.876282470722957,
        "name": "perpignan_parking_BikeRack_Le_roy_merlin_zidA6YJ02WD",
        "station_id": "perpignan_parking_BikeRack_Le_roy_merlin_zidA6YJ02WD"
      },
      {
        "is_virtual_station": true,
        "lat": 42.66968281523835,
        "lon": 2.8844219312948067,
        "name": "perpignan_parking_BikeRack_Mcdo_Sud_3_zidH2TZ2U1D",
        "station_id": "perpignan_parking_BikeRack_Mcdo_Sud_3_zidH2TZ2U1D"
      },
      {
        "is_virtual_station": true,
        "lat": 42.669697,
        "lon": 2.882508,
        "name": "perpignan_parking_Moto_Porte_d_espagne_zid0ZATI3FW",
        "station_id": "perpignan_parking_Moto_Porte_d_espagne_zid0ZATI3FW"
      },
      {
        "is_virtual_station": true,
        "lat": 42.7008043341575,
        "lon": 2.89449595807713,
        "name": "perpignan_parking_22___1_bis_Rue_du_Castillet_zid6UCEEYJJ",
        "station_id": "perpignan_parking_22___1_bis_Rue_du_Castillet_zid6UCEEYJJ"
      },
      {
        "is_virtual_station": true,
        "lat": 42.6750986,
        "lon": 2.8441668,
        "name": "perpignan_parking_52___3_Rue_Charles_Gerhardt_zidVPX3WWTZ",
        "station_id": "perpignan_parking_52___3_Rue_Charles_Gerhardt_zidVPX3WWTZ"
      },
      {
        "is_virtual_station": true,
        "lat": 42.675549,
        "lon": 2.8407,
        "name": "perpignan_parking_51___4060_Av_Julien_Panchot_zid3PIWVANX",
        "station_id": "perpignan_parking_51___4060_Av_Julien_Panchot_zid3PIWVANX"
      },
      {
        "is_virtual_station": true,
        "lat": 42.677319,
        "lon": 2.848232,
        "name": "perpignan_parking_53___3750_Av_Julien_Panchot_zidQ76IVU6N",
        "station_id": "perpignan_parking_53___3750_Av_Julien_Panchot_zidQ76IVU6N"
      },
      {
        "is_virtual_station": true,
        "lat": 42.7036143,
        "lon": 2.8852462,
        "name": "perpignan_parking_56___Rue_Honore_Daumier_zidDW6HZKZL",
        "station_id": "perpignan_parking_56___Rue_Honore_Daumier_zidDW6HZKZL"
      },
      {
        "is_virtual_station": true,
        "lat": 42.703968,
        "lon": 2.888009,
        "name": "perpignan_parking_54___54_Rue_Jean_Richepin_zidE8OQAAHA",
        "station_id": "perpignan_parking_54___54_Rue_Jean_Richepin_zidE8OQAAHA"
      },
      {
        "is_virtual_station": true,
        "lat": 42.676364643028656,
        "lon": 2.890418244466575,
        "name": "perpignan_parking_Marquage_Stockomanie__zidYIV8E0SL",
        "station_id": "perpignan_parking_Marquage_Stockomanie__zidYIV8E0SL"
      },
      {
        "is_virtual_station": true,
        "lat": 42.685968,
        "lon": 2.893392,
        "name": "perpignan_parking_BikeRack_Briqueterie_zidU6V1CFI0",
        "station_id": "perpignan_parking_BikeRack_Briqueterie_zidU6V1CFI0"
      },
      {
        "is_virtual_station": true,
        "lat": 42.709857,
        "lon": 2.884022,
        "name": "perpignan_parking_BikeRack_Super_U_Nord_zidH8WMRDYT",
        "station_id": "perpignan_parking_BikeRack_Super_U_Nord_zidH8WMRDYT",
        "vehicle_capacity": {
          "scooter": 3
        },
        "vehicle_type_capacity": {
          "scooter": 3
        },
        "vehicle_types_capacity": [
          {
            "count": 3,
            "vehicle_type_ids": [
              "scooter"
            ]
          }
        ]
      },
      {
        "is_virtual_station": true,
        "lat": 42.7039546,
        "lon": 2.8798257,
        "name": "perpignan_parking_59___14_Rue_des_Camporells_zidD18NHGSL",
        "station_id": "perpignan_parking_59___14_Rue_des_Camporells_zidD18NHGSL"
      },
      {
        "is_virtual_station": true,
        "lat": 42.704109,
        "lon": 2.882787,
        "name": "perpignan_parking_57___29_Rue_Isidore_Hondrat_zidBM9BMPRI",
        "station_id": "perpignan_parking_57___29_Rue_Isidore_Hondrat_zidBM9BMPRI"
      },
      {
        "is_virtual_station": true,
        "lat": 42.7023117,
        "lon": 2.8796531,
        "name": "perpignan_parking_60___18_Av_de_Saint_Esteve_zid8Q1YAZWN",
        "station_id": "perpignan_parking_60___18_Av_de_Saint_Esteve_zid8Q1YAZWN"
      },
      {
        "is_virtual_station": true,
        "lat": 42.702643,
        "lon": 2.878406,
        "name": "perpignan_parking_61___11_Av_de_Saint_Esteve_zidS7HM8D6N",
        "station_id": "perpignan_parking_61___11_Av_de_Saint_Esteve_zidS7HM8D6N"
      },
      {
        "is_virtual_station": true,
        "lat": 42.7042432423218,
        "lon": 2.8785528455069,
        "name": "perpignan_parking_62___28_Rue_de_Balcere_zidQV3K64WG",
        "station_id": "perpignan_parking_62___28_Rue_de_Balcere_zidQV3K64WG"
      },
      {
        "is_virtual_station": true,
        "lat": 42.7056709941462,
        "lon": 2.87801596705652,
        "name": "perpignan_parking_63___Parc_Clodion_Torcatis_zidUGU2L199",
        "station_id": "perpignan_parking_63___Parc_Clodion_Torcatis_zidUGU2L199"
      },
      {
        "is_virtual_station": true,
        "lat": 42.706583,
        "lon": 2.877822,
        "name": "perpignan_parking_64___41_Rue_Frederic_Bartholdi_zidYJQVK7C3",
        "station_id": "perpignan_parking_64___41_Rue_Frederic_Bartholdi_zidYJQVK7C3"
      },
      {
        "is_virtual_station": true,
        "lat": 42.706603,
        "lon": 2.880524,
        "name": "perpignan_parking_65___3_Place_de_la_Lentilla_zidQSQA0WJM",
        "station_id": "perpignan_parking_65___3_Place_de_la_Lentilla_zidQSQA0WJM"
      },
      {
        "is_virtual_station": true,
        "lat": 42.705958,
        "lon": 2.880709,
        "name": "perpignan_parking_66___1_Rue_du_Carol_zid0CAQY9C5",
        "station_id": "perpignan_parking_66___1_Rue_du_Carol_zid0CAQY9C5"
      },
      {
        "is_virtual_station": true,
        "lat": 42.7059852,
        "lon": 2.8887854,
        "name": "perpignan_parking_67___33_Place_Henri_Barbusse_zidOHFS46DV",
        "station_id": "perpignan_parking_67___33_Place_Henri_Barbusse_zidOHFS46DV"
      },
      {
        "is_virtual_station": true,
        "lat": 42.70715,
        "lon": 2.888272,
        "name": "perpignan_parking_68___8_Rue_Andre_Chenier_zid14NU4AU4",
        "station_id": "perpignan_parking_68___8_Rue_Andre_Chenier_zid14NU4AU4"
      },
      {
        "is_virtual_station": true,
        "lat": 42.70923,
        "lon": 2.87748,
        "name": "perpignan_parking_69___10_Rue_du_Lieutenant_Gourbault_zidEY784O4F",
        "station_id": "perpignan_parking_69___10_Rue_du_Lieutenant_Gourbault_zidEY784O4F"
      },
      {
        "is_virtual_station": true,
        "lat": 42.66683913306096,
        "lon": 2.9173259640048013,
        "name": "perpignan_parking_BikeRack_Mega_castillet_zidTT94ZQ5E",
        "station_id": "perpignan_parking_BikeRack_Mega_castillet_zidTT94ZQ5E"
      },
      {
        "is_virtual_station": true,
        "lat": 42.7108728,
        "lon": 2.8859041,
        "name": "perpignan_parking_71___17_rue_Heredia_zid3Y58VRPP",
        "station_id": "perpignan_parking_71___17_rue_Heredia_zid3Y58VRPP"
      },
      {
        "is_virtual_station": true,
        "lat": 42.712366,
        "lon": 2.88356,
        "name": "perpignan_parking_72___1_Rue_des_Canaris_zid54L43OYP",
        "station_id": "perpignan_parking_72___1_Rue_des_Canaris_zid54L43OYP"
      },
      {
        "is_virtual_station": true,
        "lat": 42.713694,
        "lon": 2.884187,
        "name": "perpignan_parking_73___32_Rue_des_Mouettes_zidC8MMP4BH",
        "station_id": "perpignan_parking_73___32_Rue_des_Mouettes_zidC8MMP4BH"
      },
      {
        "is_virtual_station": true,
        "lat": 42.688059,
        "lon": 2.909673,
        "name": "perpignan_parking_106___31_Av_William_Shakespeare_zid28IYDSL8",
        "station_id": "perpignan_parking_106___31_Av_William_Shakespeare_zid28IYDSL8"
      },
      {
        "is_virtual_station": true,
        "lat": 42.6821014,
        "lon": 2.9085928,
        "name": "perpignan_parking_102___7_Rdpt_de_l_Occitanie_zidP01Z8OAU",
        "station_id": "perpignan_parking_102___7_Rdpt_de_l_Occitanie_zidP01Z8OAU"
      },
      {
        "is_virtual_station": true,
        "lat": 42.68373,
        "lon": 2.912986,
        "name": "perpignan_parking_104___91_Av_William_Shakespeare_zidIMV7VRRO",
        "station_id": "perpignan_parking_104___91_Av_William_Shakespeare_zidIMV7VRRO"
      },
      {
        "is_virtual_station": true,
        "lat": 42.6860720505551,
        "lon": 2.91092594463389,
        "name": "perpignan_parking_105___39_Av_William_Shakespeare_zid4IX5W1H4",
        "station_id": "perpignan_parking_105___39_Av_William_Shakespeare_zid4IX5W1H4"
      },
      {
        "is_virtual_station": true,
        "lat": 42.708389,
        "lon": 2.891056,
        "name": "perpignan_parking_74___57_Avenue_Marechal_Joffre_zidKFU8BA98",
        "station_id": "perpignan_parking_74___57_Avenue_Marechal_Joffre_zidKFU8BA98"
      },
      {
        "is_virtual_station": true,
        "lat": 42.6746734,
        "lon": 2.9063733,
        "name": "perpignan_parking_98___18_Rue_du_Pic_de_Neoulous_zidXYVO405W",
        "station_id": "perpignan_parking_98___18_Rue_du_Pic_de_Neoulous_zidXYVO405W"
      },
      {
        "is_virtual_station": true,
        "lat": 42.6834017179627,
        "lon": 2.90771446142693,
        "name": "perpignan_parking_103___Rue_de_Taillet_zidO5GCV3S1",
        "station_id": "perpignan_parking_103___Rue_de_Taillet_zidO5GCV3S1"
      },
      {
        "is_virtual_station": true,
        "lat": 42.692366,
        "lon": 2.885182,
        "name": "perpignan_parking_76___38_Avenue_Julien_Panchot_zid24B7O4G0",
        "station_id": "perpignan_parking_76___38_Avenue_Julien_Panchot_zid24B7O4G0"
      },
      {
        "is_virtual_station": true,
        "lat": 42.67822,
        "lon": 2.90782,
        "name": "perpignan_parking_100___1_Avenue_de_Banyuls_Sur_Mer_zid93JO4UJA",
        "station_id": "perpignan_parking_100___1_Avenue_de_Banyuls_Sur_Mer_zid93JO4UJA"
      },
      {
        "is_virtual_station": true,
        "lat": 42.6918887,
        "lon": 2.8842377,
        "name": "perpignan_parking_77___12_Rue_Alart_Julien_Bernard_zidIIG7NFU4",
        "station_id": "perpignan_parking_77___12_Rue_Alart_Julien_Bernard_zidIIG7NFU4"
      },
      {
        "is_virtual_station": true,
        "lat": 42.6914523,
        "lon": 2.882802,
        "name": "perpignan_parking_78___80_HLM_Victor_Dalbiez_zidK3DNAPA0",
        "station_id": "perpignan_parking_78___80_HLM_Victor_Dalbiez_zidK3DNAPA0"
      },
      {
        "is_virtual_station": true,
        "lat": 42.695089,
        "lon": 2.889401,
        "name": "perpignan_parking_81___62_Rue_Marechal_Foch_zidN1T5GXXP",
        "station_id": "perpignan_parking_81___62_Rue_Marechal_Foch_zidN1T5GXXP"
      },
      {
        "is_virtual_station": true,
        "lat": 42.70067,
        "lon": 2.88803,
        "name": "perpignan_parking_83___53_Avenue_Marechal_Leclerc_zidFELISRM1",
        "station_id": "perpignan_parking_83___53_Avenue_Marechal_Leclerc_zidFELISRM1"
      },
      {
        "is_virtual_station": true,
        "lat": 42.6750555935204,
        "lon": 2.90481535774323,
        "name": "perpignan_parking_97___88_avenue_Paul_Alduy_zid3K3HSKXC",
        "station_id": "perpignan_parking_97___88_avenue_Paul_Alduy_zid3K3HSKXC"
      },
      {
        "is_virtual_station": true,
        "lat": 42.6905065,
        "lon": 2.9014521,
        "name": "perpignan_parking_86___15204_Bd_John_Fitzgerald_Kennedy_zid62T9WPHM",
        "station_id": "perpignan_parking_86___15204_Bd_John_Fitzgerald_Kennedy_zid62T9WPHM"
      },
      {
        "is_virtual_station": true,
        "lat": 42.686956,
        "lon": 2.901938,
        "name": "perpignan_parking_87___5_Av_Marechal_Koenig_zidNVGCGFCL",
        "station_id": "perpignan_parking_87___5_Av_Marechal_Koenig_zidNVGCGFCL"
      },
      {
        "is_virtual_station": true,
        "lat": 42.6793835467843,
        "lon": 2.90440718209661,
        "name": "perpignan_parking_96___7_Sq_de_Montesquieu_zidWFJWDCKA",
        "station_id": "perpignan_parking_96___7_Sq_de_Montesquieu_zidWFJWDCKA"
      },
      {
        "is_virtual_station": true,
        "lat": 42.6788949846699,
        "lon": 2.90291422504952,
        "name": "perpignan_parking_95___3_Avenue_Alfred_Sauvy_zid2YJSGRBA",
        "station_id": "perpignan_parking_95___3_Avenue_Alfred_Sauvy_zid2YJSGRBA"
      },
      {
        "is_virtual_station": true,
        "lat": 42.71107995388123,
        "lon": 2.88355092912645,
        "name": "perpignan_parking_BikeRack_Secours_Populaire_zid6S70IFID",
        "station_id": "perpignan_parking_BikeRack_Secours_Populaire_zid6S70IFID"
      },
      {
        "is_virtual_station": true,
        "lat": 42.682836,
        "lon": 2.902002,
        "name": "perpignan_parking_88___9_Avenue_Paul_Alduy_zid57LLGIHZ",
        "station_id": "perpignan_parking_88___9_Avenue_Paul_Alduy_zid57LLGIHZ"
      },
      {
        "is_virtual_station": true,
        "lat": 42.6816586324723,
        "lon": 2.90285135215623,
        "name": "perpignan_parking_89___15_Rue_de_Taulis_zidB3VQW2K2",
        "station_id": "perpignan_parking_89___15_Rue_de_Taulis_zidB3VQW2K2"
      },
      {
        "is_virtual_station": true,
        "lat": 42.6838453993144,
        "lon": 2.90481733491527,
        "name": "perpignan_parking_90___1_Rue_de_Saint_Nazaire_zid28MH1RA9",
        "station_id": "perpignan_parking_90___1_Rue_de_Saint_Nazaire_zid28MH1RA9"
      },
      {
        "is_virtual_station": true,
        "lat": 42.686927,
        "lon": 2.887479,
        "name": "perpignan_parking_91___30_Boulevard_Nungesser_et_Coli_zid5JGVPKRZ",
        "station_id": "perpignan_parking_91___30_Boulevard_Nungesser_et_Coli_zid5JGVPKRZ"
      },
      {
        "is_virtual_station": true,
        "lat": 42.6831405629316,
        "lon": 2.88961494712154,
        "name": "perpignan_parking_92___98_Boulevard_Nungesser_et_Coli_zidB7WXZ4JU",
        "station_id": "perpignan_parking_92___98_Boulevard_Nungesser_et_Coli_zidB7WXZ4JU"
      },
      {
        "is_virtual_station": true,
        "lat": 42.679041,
        "lon": 2.900561,
        "name": "perpignan_parking_94__7_Avenue_Alfred_Sauvy_zid8TT068QX",
        "station_id": "perpignan_parking_94__7_Avenue_Alfred_Sauvy_zid8TT068QX"
      },
      {
        "is_virtual_station": true,
        "lat": 42.681447,
        "lon": 2.893397,
        "name": "perpignan_parking_93__140_Bd_Nungesser_et_Coli_zidEXX8LHRE",
        "station_id": "perpignan_parking_93__140_Bd_Nungesser_et_Coli_zidEXX8LHRE"
      },
      {
        "is_virtual_station": true,
        "lat": 42.666632,
        "lon": 2.909161,
        "name": "perpignan_parking_BikeRack_CFA_1_zidY527Q15I",
        "station_id": "perpignan_parking_BikeRack_CFA_1_zidY527Q15I"
      },
      {
        "is_virtual_station": true,
        "lat": 42.667428190470595,
        "lon": 2.908777043878553,
        "name": "perpignan_parking_BikeRack_CFA_2_zid7NDMH7CE",
        "station_id": "perpignan_parking_BikeRack_CFA_2_zid7NDMH7CE"
      },
      {
        "is_virtual_station": true,
        "lat": 42.666307248421234,
        "lon": 2.8868473150201033,
        "name": "perpignan_parking_BikeRack_Mairie_Porte_espagne_zidA553SNXF",
        "station_id": "perpignan_parking_BikeRack_Mairie_Porte_espagne_zidA553SNXF"
      },
      {
        "is_virtual_station": true,
        "lat": 42.689915218669434,
        "lon": 2.925660780744238,
        "name": "perpignan_parking_BikeRack_Action_Est_zidJBYX0NHB",
        "station_id": "perpignan_parking_BikeRack_Action_Est_zidJBYX0NHB"
      },
      {
        "is_virtual_station": true,
        "lat": 42.6931332,
        "lon": 2.9040119,
        "name": "perpignan_parking_109___12_Av_Albert_Camus_zidGPLXR4WV",
        "station_id": "perpignan_parking_109___12_Av_Albert_Camus_zidGPLXR4WV"
      },
      {
        "is_virtual_station": true,
        "lat": 42.6959293,
        "lon": 2.8902106,
        "name": "perpignan_parking_82___32_Rue_Marechal_Foch_zid1BPN1IKQ",
        "station_id": "perpignan_parking_82___32_Rue_Marechal_Foch_zid1BPN1IKQ"
      },
      {
        "is_virtual_station": true,
        "lat": 42.6891609,
        "lon": 2.8839259,
        "name": "perpignan_parking_79___80_HLM_Victor_Dalbiez_zidNLLAJPG6",
        "station_id": "perpignan_parking_79___80_HLM_Victor_Dalbiez_zidNLLAJPG6"
      },
      {
        "is_virtual_station": true,
        "lat": 42.7047208,
        "lon": 2.8802372,
        "name": "perpignan_parking_58___29_Rue_Isidore_Hondrat_zidRMTBN6FH",
        "station_id": "perpignan_parking_58___29_Rue_Isidore_Hondrat_zidRMTBN6FH"
      },
      {
        "is_virtual_station": true,
        "lat": 42.68886,
        "lon": 2.87899,
        "name": "perpignan_parking_BikeRack_Carignou_zidN3KHFTIC",
        "station_id": "perpignan_parking_BikeRack_Carignou_zidN3KHFTIC",
        "vehicle_capacity": {},
        "vehicle_type_capacity": {},
        "vehicle_types_capacity": []
      },
      {
        "is_virtual_station": true,
        "lat": 42.68311,
        "lon": 2.86406,
        "name": "perpignan_parking_BikeRack_Thuir_zid8MQ3P1S9",
        "station_id": "perpignan_parking_BikeRack_Thuir_zid8MQ3P1S9",
        "vehicle_capacity": {},
        "vehicle_type_capacity": {},
        "vehicle_types_capacity": []
      },
      {
        "is_virtual_station": true,
        "lat": 42.73927,
        "lon": 2.89237,
        "name": "perpignan_parking_MotoRack_CC_Polygone_Sud_zidCGDDJVWD",
        "station_id": "perpignan_parking_MotoRack_CC_Polygone_Sud_zidCGDDJVWD",
        "vehicle_capacity": {},
        "vehicle_type_capacity": {},
        "vehicle_types_capacity": []
      },
      {
        "is_virtual_station": true,
        "lat": 42.71732,
        "lon": 2.89065,
        "name": "perpignan_parking_114___33_Rue_Gabriel_Baille_zidOUM01G0K",
        "station_id": "perpignan_parking_114___33_Rue_Gabriel_Baille_zidOUM01G0K"
      },
      {
        "is_virtual_station": true,
        "lat": 42.70695,
        "lon": 2.89995,
        "name": "perpignan_parking_110___3_Avenue_Emile_Roudayre_zidEBLN26M1",
        "station_id": "perpignan_parking_110___3_Avenue_Emile_Roudayre_zidEBLN26M1"
      },
      {
        "is_virtual_station": true,
        "lat": 42.72137,
        "lon": 2.89025,
        "name": "perpignan_parking_116___Avenue_Paul_Gauguin_zid2QGIPVHH",
        "station_id": "perpignan_parking_116___Avenue_Paul_Gauguin_zid2QGIPVHH"
      },
      {
        "is_virtual_station": true,
        "lat": 42.71537,
        "lon": 2.89357,
        "name": "perpignan_parking_113___76_Allee_Aime_Giral_zid6L8X2VCB",
        "station_id": "perpignan_parking_113___76_Allee_Aime_Giral_zid6L8X2VCB"
      },
      {
        "is_virtual_station": true,
        "lat": 42.72236,
        "lon": 2.88632,
        "name": "perpignan_parking_120___Rue_du_Meridien_zidPIVOTGFD",
        "station_id": "perpignan_parking_120___Rue_du_Meridien_zidPIVOTGFD"
      },
      {
        "is_virtual_station": true,
        "lat": 42.72796,
        "lon": 2.8883,
        "name": "perpignan_parking_119___99_Avenue_du_Languedoc_zidH8V74IUG",
        "station_id": "perpignan_parking_119___99_Avenue_du_Languedoc_zidH8V74IUG"
      },
      {
        "is_virtual_station": true,
        "lat": 42.72235,
        "lon": 2.88471,
        "name": "perpignan_parking_121___7_Rue_Ignaci_Iglesias_zidWLP3L9LY",
        "station_id": "perpignan_parking_121___7_Rue_Ignaci_Iglesias_zidWLP3L9LY"
      },
      {
        "is_virtual_station": true,
        "lat": 42.71897,
        "lon": 2.88988,
        "name": "perpignan_parking_115___36_Rue_Narcisse_Virgile_Diaz_zid08TL55KR",
        "station_id": "perpignan_parking_115___36_Rue_Narcisse_Virgile_Diaz_zid08TL55KR"
      },
      {
        "is_virtual_station": true,
        "lat": 42.7209,
        "lon": 2.88402,
        "name": "perpignan_parking_124___14_Avenue_Dr_Albert_Schweitzer_zidX00KDISG",
        "station_id": "perpignan_parking_124___14_Avenue_Dr_Albert_Schweitzer_zidX00KDISG"
      },
      {
        "is_virtual_station": true,
        "lat": 42.72459,
        "lon": 2.89104,
        "name": "perpignan_parking_117___19_Avenue_de_la_Salanque_zidRQ8WPD1F",
        "station_id": "perpignan_parking_117___19_Avenue_de_la_Salanque_zidRQ8WPD1F"
      },
      {
        "is_virtual_station": true,
        "lat": 42.72506,
        "lon": 2.88741,
        "name": "perpignan_parking_118___99_Avenue_du_Languedoc_zid0VYGVF81",
        "station_id": "perpignan_parking_118___99_Avenue_du_Languedoc_zid0VYGVF81"
      },
      {
        "is_virtual_station": true,
        "lat": 42.72549,
        "lon": 2.88921,
        "name": "perpignan_parking_BikeRack_Medecine_sport_zidXMLJ8WIS",
        "station_id": "perpignan_parking_BikeRack_Medecine_sport_zidXMLJ8WIS",
        "vehicle_capacity": {},
        "vehicle_type_capacity": {},
        "vehicle_types_capacity": []
      },
      {
        "is_virtual_station": true,
        "lat": 42.70233,
        "lon": 2.94328,
        "name": "perpignan_parking_BikeRack_Chemin_roseraie__zidLOS5PPX4",
        "station_id": "perpignan_parking_BikeRack_Chemin_roseraie__zidLOS5PPX4",
        "vehicle_capacity": {},
        "vehicle_type_capacity": {},
        "vehicle_types_capacity": []
      },
      {
        "is_virtual_station": true,
        "lat": 42.7026,
        "lon": 2.94115,
        "name": "perpignan_parking_BikeRack_Carre_d_or_Nord_zid1K4LD21Q",
        "station_id": "perpignan_parking_BikeRack_Carre_d_or_Nord_zid1K4LD21Q",
        "vehicle_capacity": {},
        "vehicle_type_capacity": {},
        "vehicle_types_capacity": []
      },
      {
        "is_virtual_station": true,
        "lat": 42.70271,
        "lon": 2.94519,
        "name": "perpignan_parking_BikeRack_Carrefour_nord_2__zidAL1RS3R2",
        "station_id": "perpignan_parking_BikeRack_Carrefour_nord_2__zidAL1RS3R2",
        "vehicle_capacity": {},
        "vehicle_type_capacity": {},
        "vehicle_types_capacity": []
      },
      {
        "is_virtual_station": true,
        "lat": 42.74034,
        "lon": 2.89152,
        "name": "perpignan_parking_Marquage_SteakNShake_zid46I2REGC",
        "station_id": "perpignan_parking_Marquage_SteakNShake_zid46I2REGC",
        "vehicle_capacity": {},
        "vehicle_type_capacity": {},
        "vehicle_types_capacity": []
      },
      {
        "is_virtual_station": true,
        "lat": 42.67555,
        "lon": 2.9081,
        "name": "perpignan_parking_99_23_Av_de_la_Cote_Radieuse_zidWDYJONNU",
        "station_id": "perpignan_parking_99_23_Av_de_la_Cote_Radieuse_zidWDYJONNU",
        "vehicle_capacity": {},
        "vehicle_type_capacity": {},
        "vehicle_types_capacity": []
      },
      {
        "is_virtual_station": true,
        "lat": 42.69187,
        "lon": 2.90679,
        "name": "perpignan_parking_Virtual_Mosque_zidJTAV9Y1B",
        "station_id": "perpignan_parking_Virtual_Mosque_zidJTAV9Y1B"
      },
      {
        "is_virtual_station": true,
        "lat": 42.6907,
        "lon": 2.90875,
        "name": "perpignan_parking_Virtual_Albert_Camus_zidOBW8EL8C",
        "station_id": "perpignan_parking_Virtual_Albert_Camus_zidOBW8EL8C"
      },
      {
        "is_virtual_station": true,
        "lat": 42.69449,
        "lon": 2.92606,
        "name": "perpignan_parking_Virtual_Puget_zidXEP6JMYI",
        "station_id": "perpignan_parking_Virtual_Puget_zidXEP6JMYI"
      },
      {
        "is_virtual_station": true,
        "lat": 42.6987,
        "lon": 2.93925,
        "name": "perpignan_parking_Virtual_Doisneau_zidJ0JM6V8J",
        "station_id": "perpignan_parking_Virtual_Doisneau_zidJ0JM6V8J"
      },
      {
        "is_virtual_station": true,
        "lat": 42.69383,
        "lon": 2.93649,
        "name": "perpignan_parking_Virtual_Rond_Point_du_Mas_Vermeille_zid4ZJ5VCGR",
        "station_id": "perpignan_parking_Virtual_Rond_Point_du_Mas_Vermeille_zid4ZJ5VCGR"
      },
      {
        "is_virtual_station": true,
        "lat": 42.69548,
        "lon": 2.93957,
        "name": "perpignan_parking_Virtual___Rue_Michel_Audiard_zid2CXE66MQ",
        "station_id": "perpignan_parking_Virtual___Rue_Michel_Audiard_zid2CXE66MQ"
      },
      {
        "is_virtual_station": true,
        "lat": 42.6927597172842,
        "lon": 2.9430651845395897,
        "name": "perpignan_parking_Virtual___Rue_Andre_Cayatte_zidQAYQNA12",
        "station_id": "perpignan_parking_Virtual___Rue_Andre_Cayatte_zidQAYQNA12"
      },
      {
        "is_virtual_station": true,
        "lat": 42.69855,
        "lon": 2.94205,
        "name": "perpignan_parking_Virtual___Rue_Maurice_Trintignant_zid9B840FMS",
        "station_id": "perpignan_parking_Virtual___Rue_Maurice_Trintignant_zid9B840FMS"
      },
      {
        "is_virtual_station": true,
        "lat": 42.6989,
        "lon": 2.92314,
        "name": "perpignan_parking_Virtual_PL_Blondel_zidNKA2HLH2",
        "station_id": "perpignan_parking_Virtual_PL_Blondel_zidNKA2HLH2"
      },
      {
        "is_virtual_station": true,
        "lat": 42.6866,
        "lon": 2.91379,
        "name": "perpignan_parking_Virtual_Claudel_zidJCX6DNY2",
        "station_id": "perpignan_parking_Virtual_Claudel_zidJCX6DNY2"
      },
      {
        "is_virtual_station": true,
        "lat": 42.71101,
        "lon": 2.9467,
        "name": "perpignan_parking_Virtual_Roussillon_zidC8D9NHBI",
        "station_id": "perpignan_parking_Virtual_Roussillon_zidC8D9NHBI"
      },
      {
        "is_virtual_station": true,
        "lat": 42.71022,
        "lon": 2.94854,
        "name": "perpignan_parking_Virtual_Chemin_Roussillon_zid8EAWVX57",
        "station_id": "perpignan_parking_Virtual_Chemin_Roussillon_zid8EAWVX57"
      },
      {
        "is_virtual_station": true,
        "lat": 42.6964,
        "lon": 2.92125,
        "name": "perpignan_parking_135_25_Rue_Louis_le_Vau_zidV0YMC65B",
        "station_id": "perpignan_parking_135_25_Rue_Louis_le_Vau_zidV0YMC65B",
        "vehicle_capacity": {},
        "vehicle_type_capacity": {},
        "vehicle_types_capacity": []
      },
      {
        "is_virtual_station": true,
        "lat": 42.69741,
        "lon": 2.92584,
        "name": "perpignan_parking_134_120_Avenue_General_Gilles_zid9LKT4D82",
        "station_id": "perpignan_parking_134_120_Avenue_General_Gilles_zid9LKT4D82",
        "vehicle_capacity": {},
        "vehicle_type_capacity": {},
        "vehicle_types_capacity": []
      },
      {
        "is_virtual_station": true,
        "lat": 42.69712,
        "lon": 2.93157,
        "name": "perpignan_parking_133_11_Rue_Leon_Vaudoyer_zidW0DG2A3E",
        "station_id": "perpignan_parking_133_11_Rue_Leon_Vaudoyer_zidW0DG2A3E",
        "vehicle_capacity": {},
        "vehicle_type_capacity": {},
        "vehicle_types_capacity": []
      },