{
  "last_updated": 1771749856,
  "ttl": 300,
  "version": "2.3",
  "data": {
    "stations": [
      {
        "station_id": "1",
        "name": "GARE VIOTTE (CB)",
        "lat": 47.246419,
        "lon": 6.022567,
        "address": "GARE VIOTTE Parc des Glacis - Entrée Avenue de la Paix",
        "rental_methods": [
          "creditcard"
        ],
        "capacity": 30
      },
      {
        "station_id": "2",
        "name": "REMPARTS",
        "lat": 47.243497,
        "lon": 6.021877,
        "address": "Rue Battant (au niveau du Square Bouchot)",
        "capacity": 10
      },
      {
        "station_id": "3",
        "name": "BATTANT (CB)",
        "lat": 47.239978,
        "lon": 6.019691,
        "address": "Rue de la Madeleine- Face à la rue de l'Ecole",
        "rental_methods": [
          "creditcard"
        ],
        "capacity": 15
      },
      {
        "station_id": "4",
        "name": "FLORE",
        "lat": 47.245763,
        "lon": 6.028137,
        "address": "7 rue de la Cassotte",
        "capacity": 11
      },
      {
        "station_id": "5",
        "name": "ISENBART",
        "lat": 47.242745,
        "lon": 6.025208,
        "address": "Quai de Strasbourg (Pont Denfert Rochereau)",
        "capacity": 10
      },
      {
        "station_id": "6",
        "name": "PARC MICAUD (CB)",
        "lat": 47.242575,
        "lon": 6.029757,
        "address": "Avenue Edouard Droz",
        "rental_methods": [
          "creditcard"
        ],
        "capacity": 15
      },
      {
        "station_id": "7",
        "name": "GARE MOUILLERE",
        "lat": 47.240147,
        "lon": 6.033776,
        "address": "Parvis de la Gare",
        "capacity": 18
      },
      {
        "station_id": "8",
        "name": "MARULAZ",
        "lat": 47.239611,
        "lon": 6.017099,
        "address": "Place Marulaz",
        "capacity": 10
      },
      {
        "station_id": "9",
        "name": "LA CITY",
        "lat": 47.235434,
        "lon": 6.015261,
        "address": "Avenue Louise Michel angle rue Plançon",
        "capacity": 20
      },
      {
        "station_id": "10",
        "name": "8 SEPTEMBRE (CB)",
        "lat": 47.237686,
        "lon": 6.024183,
        "address": "Place du 8 Septembre",
        "rental_methods": [
          "creditcard"
        ],
        "capacity": 15
      },
      {
        "station_id": "11",
        "name": "JEAN CORNET",
        "lat": 47.236363,
        "lon": 6.028817,
        "address": "Place Jean Cornet",
        "capacity": 10
      },
      {
        "station_id": "12",
        "name": "GRANVELLE (CB)",
        "lat": 47.235437,
        "lon": 6.025724,
        "address": "Place Granvelle",
        "rental_methods": [
          "creditcard"
        ],
        "capacity": 15
      },
      {
        "station_id": "13",
        "name": "VICTOR HUGO (CB)",
        "lat": 47.234749,
        "lon": 6.029566,
        "address": "Place Victor Hugo (au niveau de la porte Noire, entrée de la Citadelle)",
        "rental_methods": [
          "creditcard"
        ],
        "capacity": 14
      },
      {
        "station_id": "14",
        "name": "JACOBINS",
        "lat": 47.234525,
        "lon": 6.033161,
        "address": "Place Jacobins",
        "capacity": 10
      },
      {
        "station_id": "15",
        "name": "LECOURBE",
        "lat": 47.231188,
        "lon": 6.026907,
        "address": "Place De Lattre de Tassigny, 25000 Besancon",
        "capacity": 10
      },
      {
        "station_id": "16",
        "name": "FONTAINE ARGENT",
        "lat": 47.244981,
        "lon": 6.032556,
        "address": "Avenue Fontaine Argent angle rue Beauregard",
        "capacity": 11
      },
      {
        "station_id": "17",
        "name": "CHAMARS",
        "lat": 47.232903,
        "lon": 6.020116,
        "address": "Avenue de la Gare d'Eau face commissariat",
        "capacity": 14
      },
      {
        "station_id": "18",
        "name": "CHAMARS ESPLANADE (CB)",
        "lat": 47.23526,
        "lon": 6.021363,
        "address": "Place Saint Jacques (en face de l'hopital)",
        "rental_methods": [
          "creditcard"
        ],
        "capacity": 20
      },
      {
        "station_id": "19",
        "name": "REVOLUTION",
        "lat": 47.239533,
        "lon": 6.023395,
        "address": "Place de la Révolution rue Luc Breton\r\n",
        "capacity": 15
      },
      {
        "station_id": "20",
        "name": "TRISTAN BERNARD",
        "lat": 47.247808,
        "lon": 6.03642,
        "address": "Avenue Fontaine Argent angle Bld Diderot\r\n",
        "capacity": 12
      },
      {
        "station_id": "21",
        "name": "LIBERTE",
        "lat": 47.24746,
        "lon": 6.028587,
        "address": "Place de la Liberté\r\n",
        "capacity": 12
      },
      {
        "station_id": "22",
        "name": "RIVOTTE",
        "lat": 47.23219,
        "lon": 6.035007,
        "address": "20 faubourg Rivotte\r\n",
        "capacity": 12
      },
      {
        "station_id": "23",
        "name": "REPUBLIQUE",
        "lat": 47.240099,
        "lon": 6.02735,
        "address": "Rue de la République angle rue d'Alsace face à la médiathèque\r\n",
        "capacity": 10
      },
      {
        "station_id": "24",
        "name": "GRANGES",
        "lat": 47.238129,
        "lon": 6.026293,
        "address": "2 rue Morand\r\n",
        "capacity": 12
      },
      {
        "station_id": "600",
        "name": "BORNE DE TEST",
        "lat": 47.079814,
        "lon": 5.737923,
        "address": "",
        "capacity": 3
      },
      {
        "station_id": "25",
        "name": "BERSOT",
        "lat": 47.23886,
        "lon": 6.029562,
        "address": "Place de la 7ème Brigade blindée\r\n",
        "capacity": 10
      },
      {
        "station_id": "26",
        "name": "MAIRIE",
        "lat": 47.236806,
        "lon": 6.022309,
        "address": "Rue Megevand\r\n",
        "capacity": 15
      },
      {
        "station_id": "27",
        "name": "LECLERC",
        "lat": 47.242267,
        "lon": 6.014448,
        "address": "Place Leclerc\r\n",
        "capacity": 10
      },
      {
        "station_id": "28",
        "name": "MARIE LOUISE",
        "lat": 47.248886,
        "lon": 6.030818,
        "address": "Rue de Belfort angle rue Suard",
        "capacity": 12
      },
      {
        "station_id": "29",
        "name": "GIBELOTTE",
        "lat": 47.242184,
        "lon": 6.009141,
        "address": "carrefour Xavier Marmier Ousmane Sow",
        "capacity": 12
      },
      {
        "station_id": "30",
        "name": "LEO LAGRANGE",
        "lat": 47.24414,
        "lon": 6.004416,
        "address": "Rue Alphonse Delacroix",
        "capacity": 20
      },
      {
        "station_id": "31",
        "name": "IUT",
        "lat": 47.247369,
        "lon": 5.992249,
        "address": "Avenue de l'observatoire",
        "capacity": 20
      },
      {
        "station_id": "32",
        "name": "CROUS UNIVERSITE",
        "lat": 47.248488,
        "lon": 5.986929,
        "address": "35 Avenue de l'Observatoire",
        "capacity": 42
      }
    ]
  }
}