{
  "data": {
    "stations": [
      {
        "is_virtual_station": true,
        "lat": 47.4694015,
        "lon": -0.548873,
        "name": "5_Boulevard_de_Maréchal_Foch",
        "station_id": "5_Boulevard_de_Maréchal_Foch"
      },
      {
        "is_virtual_station": true,
        "lat": 47.4699407,
        "lon": -0.5486116,
        "name": "6_Boulevard_de_Maréchal_Foch",
        "station_id": "6_Boulevard_de_Maréchal_Foch"
      },
      {
        "is_virtual_station": true,
        "lat": 47.4694325,
        "lon": -0.5493219,
        "name": "Maréchal_Foch-Rue_dAlsace",
        "station_id": "Maréchal_Foch-Rue_dAlsace"
      },
      {
        "is_virtual_station": true,
        "lat": 47.4700218004,
        "lon": -0.5852830024,
        "name": "Rue_Jules_Ladoumegue_47_4700218004",
        "station_id": "Rue_Jules_Ladoumegue_47_4700218004"
      },
      {
        "is_virtual_station": true,
        "lat": 47.4697975454,
        "lon": -0.5853642132,
        "name": "Rue_Jules_Ladoumegue_47_4697975454",
        "station_id": "Rue_Jules_Ladoumegue_47_4697975454"
      },
      {
        "is_virtual_station": true,
        "lat": 47.475721,
        "lon": -0.545698,
        "name": "angers_parking_2_zidOCGO3TTV",
        "station_id": "angers_parking_2_zidOCGO3TTV"
      },
      {
        "is_virtual_station": true,
        "lat": 47.462191,
        "lon": -0.55369,
        "name": "angers_parking_6_zidKGEWULQY",
        "station_id": "angers_parking_6_zidKGEWULQY"
      },
      {
        "is_virtual_station": true,
        "lat": 47.462004,
        "lon": -0.554731,
        "name": "angers_parking_4_zidQSWDCLPF",
        "station_id": "angers_parking_4_zidQSWDCLPF"
      },
      {
        "is_virtual_station": true,
        "lat": 47.452984,
        "lon": -0.553905,
        "name": "angers_parking_5_zidSDFG7BAT",
        "station_id": "angers_parking_5_zidSDFG7BAT"
      },
      {
        "is_virtual_station": true,
        "lat": 47.471816,
        "lon": -0.544521,
        "name": "angers_parking_3_zidLC0V6373",
        "station_id": "angers_parking_3_zidLC0V6373"
      },
      {
        "is_virtual_station": true,
        "lat": 47.471274,
        "lon": -0.546429,
        "name": "angers_parking_2_zid18SK6IYE",
        "station_id": "angers_parking_2_zid18SK6IYE"
      },
      {
        "is_virtual_station": true,
        "lat": 47.450692,
        "lon": -0.555727,
        "name": "angers_parking_5_zidSE7HOBQG",
        "station_id": "angers_parking_5_zidSE7HOBQG"
      },
      {
        "is_virtual_station": true,
        "lat": 47.468094,
        "lon": -0.551503,
        "name": "angers_parking_3_zidPWWJI8YV",
        "station_id": "angers_parking_3_zidPWWJI8YV"
      },
      {
        "is_virtual_station": true,
        "lat": 47.471243,
        "lon": -0.552346,
        "name": "angers_parking_6_zid2MM4JD97",
        "station_id": "angers_parking_6_zid2MM4JD97"
      },
      {
        "is_virtual_station": true,
        "lat": 47.477785,
        "lon": -0.576874,
        "name": "angers_parking_3_zidMBV53ZR9",
        "station_id": "angers_parking_3_zidMBV53ZR9"
      },
      {
        "is_virtual_station": true,
        "lat": 47.459499,
        "lon": -0.536597,
        "name": "angers_parking_2_zidCRVBWAY3",
        "station_id": "angers_parking_2_zidCRVBWAY3"
      },
      {
        "is_virtual_station": true,
        "lat": 47.457018,
        "lon": -0.553802,
        "name": "angers_parking_3_zidJ09PNAGM",
        "station_id": "angers_parking_3_zidJ09PNAGM"
      },
      {
        "is_virtual_station": true,
        "lat": 47.478954,
        "lon": -0.536282,
        "name": "angers_parking_3_zidT1R4YABJ",
        "station_id": "angers_parking_3_zidT1R4YABJ"
      },
      {
        "is_virtual_station": true,
        "lat": 47.455854,
        "lon": -0.551112,
        "name": "angers_parking_4_zidIJ71YKDF",
        "station_id": "angers_parking_4_zidIJ71YKDF"
      },
      {
        "is_virtual_station": true,
        "lat": 47.446056,
        "lon": -0.563272,
        "name": "angers_parking_6_zid8BSE099J",
        "station_id": "angers_parking_6_zid8BSE099J"
      },
      {
        "is_virtual_station": true,
        "lat": 47.47573,
        "lon": -0.564514,
        "name": "angers_parking_3_zid5FCR5KIN",
        "station_id": "angers_parking_3_zid5FCR5KIN"
      },
      {
        "is_virtual_station": true,
        "lat": 47.494548,
        "lon": -0.561314,
        "name": "angers_parking_11_zidHMHSOCV5",
        "station_id": "angers_parking_11_zidHMHSOCV5"
      },
      {
        "is_virtual_station": true,
        "lat": 47.491272,
        "lon": -0.561191,
        "name": "angers_parking_5_zid01Z0PHFH",
        "station_id": "angers_parking_5_zid01Z0PHFH"
      },
      {
        "is_virtual_station": true,
        "lat": 47.491079,
        "lon": -0.560646,
        "name": "angers_parking_9_zidRGX3X0OD",
        "station_id": "angers_parking_9_zidRGX3X0OD"
      },
      {
        "is_virtual_station": true,
        "lat": 47.464863,
        "lon": -0.555896,
        "name": "angers_parking_10_zidK6O50ELL",
        "station_id": "angers_parking_10_zidK6O50ELL"
      },
      {
        "is_virtual_station": true,
        "lat": 47.46819,
        "lon": -0.597178,
        "name": "angers_parking_6_zidXVSUYS5M",
        "station_id": "angers_parking_6_zidXVSUYS5M"
      },
      {
        "is_virtual_station": true,
        "lat": 47.465764,
        "lon": -0.551467,
        "name": "angers_parking_2_zidKAYKBUXE",
        "station_id": "angers_parking_2_zidKAYKBUXE"
      },
      {
        "is_virtual_station": true,
        "lat": 47.464465,
        "lon": -0.531684,
        "name": "angers_parking_2_zid5B0FJIAQ",
        "station_id": "angers_parking_2_zid5B0FJIAQ"
      },
      {
        "is_virtual_station": true,
        "lat": 47.464061,
        "lon": -0.530755,
        "name": "angers_parking_2_zidLBRUATF3",
        "station_id": "angers_parking_2_zidLBRUATF3"
      },
      {
        "is_virtual_station": true,
        "lat": 47.47788,
        "lon": -0.530089,
        "name": "angers_parking_3_zidI89LBWF7",
        "station_id": "angers_parking_3_zidI89LBWF7"
      },
      {
        "is_virtual_station": true,
        "lat": 47.490932,
        "lon": -0.561612,
        "name": "angers_parking_3_zid9NXFUKL6",
        "station_id": "angers_parking_3_zid9NXFUKL6"
      },
      {
        "is_virtual_station": true,
        "lat": 47.490163,
        "lon": -0.561155,
        "name": "angers_parking_6_zid4Z3ECY7V",
        "station_id": "angers_parking_6_zid4Z3ECY7V"
      },
      {
        "is_virtual_station": true,
        "lat": 47.490913,
        "lon": -0.560459,
        "name": "angers_parking_4_zidR2ZA7NE3",
        "station_id": "angers_parking_4_zidR2ZA7NE3"
      },
      {
        "is_virtual_station": true,
        "lat": 47.492924,
        "lon": -0.560762,
        "name": "angers_parking_7_zidGMWJVXDX",
        "station_id": "angers_parking_7_zidGMWJVXDX"
      },
      {
        "is_virtual_station": true,
        "lat": 47.459883,
        "lon": -0.536886,
        "name": "angers_parking_2_zidDY9TER1M",
        "station_id": "angers_parking_2_zidDY9TER1M"
      },
      {
        "is_virtual_station": true,
        "lat": 47.467214,
        "lon": -0.545349,
        "name": "angers_parking_3_zid327XFYR5",
        "station_id": "angers_parking_3_zid327XFYR5"
      },
      {
        "is_virtual_station": true,
        "lat": 47.500418,
        "lon": -0.58356,
        "name": "angers_parking_3_zidB2U8WGY5",
        "station_id": "angers_parking_3_zidB2U8WGY5"
      },
      {
        "is_virtual_station": true,
        "lat": 47.460406,
        "lon": -0.554973,
        "name": "angers_parking_3_zidCYWJZ8NF",
        "station_id": "angers_parking_3_zidCYWJZ8NF"
      },
      {
        "is_virtual_station": true,
        "lat": 47.447607,
        "lon": -0.566623,
        "name": "angers_parking_3_zid08KXP28A",
        "station_id": "angers_parking_3_zid08KXP28A"
      },
      {
        "is_virtual_station": true,
        "lat": 47.476847,
        "lon": -0.547035,
        "name": "angers_parking_4_zidY844B0M9",
        "station_id": "angers_parking_4_zidY844B0M9"
      },
      {
        "is_virtual_station": true,
        "lat": 47.477723,
        "lon": -0.559572,
        "name": "angers_parking_1_zid9BKGSFJU",
        "station_id": "angers_parking_1_zid9BKGSFJU"
      },
      {
        "is_virtual_station": true,
        "lat": 47.461779,
        "lon": -0.532158,
        "name": "angers_parking_3_zidHMDREDHK",
        "station_id": "angers_parking_3_zidHMDREDHK"
      },
      {
        "is_virtual_station": true,
        "lat": 47.472212,
        "lon": -0.531494,
        "name": "angers_parking_5_zidJ6PT8Z4U",
        "station_id": "angers_parking_5_zidJ6PT8Z4U"
      },
      {
        "is_virtual_station": true,
        "lat": 47.471914,
        "lon": -0.546823,
        "name": "angers_parking_2_zidSF8SPSSO",
        "station_id": "angers_parking_2_zidSF8SPSSO"
      },
      {
        "is_virtual_station": true,
        "lat": 47.450022,
        "lon": -0.561601,
        "name": "angers_parking_4_zid5R95A7E0",
        "station_id": "angers_parking_4_zid5R95A7E0"
      },
      {
        "is_virtual_station": true,
        "lat": 47.475197,
        "lon": -0.561729,
        "name": "angers_parking_3_zidN133BG4R",
        "station_id": "angers_parking_3_zidN133BG4R"
      },
      {
        "is_virtual_station": true,
        "lat": 47.489126,
        "lon": -0.536525,
        "name": "angers_parking_4_zid3QENYG6S",
        "station_id": "angers_parking_4_zid3QENYG6S"
      },
      {
        "is_virtual_station": true,
        "lat": 47.451111,
        "lon": -0.555301,
        "name": "angers_parking_2_zidWO78UGHZ",
        "station_id": "angers_parking_2_zidWO78UGHZ"
      },
      {
        "is_virtual_station": true,
        "lat": 47.473428,
        "lon": -0.593381,
        "name": "angers_parking_2_zid9Y2AXYZZ",
        "station_id": "angers_parking_2_zid9Y2AXYZZ"
      },
      {
        "is_virtual_station": true,
        "lat": 47.479127,
        "lon": -0.561497,
        "name": "angers_parking_2_zidYP2CFURZ",
        "station_id": "angers_parking_2_zidYP2CFURZ"
      },
      {
        "is_virtual_station": true,
        "lat": 47.4644,
        "lon": -0.548386,
        "name": "angers_parking_1_zid85HSCH7F",
        "station_id": "angers_parking_1_zid85HSCH7F"
      },
      {
        "is_virtual_station": true,
        "lat": 47.468408,
        "lon": -0.550087,
        "name": "angers_parking_2_zid7X7P9MMV",
        "station_id": "angers_parking_2_zid7X7P9MMV"
      },
      {
        "is_virtual_station": true,
        "lat": 47.471378,
        "lon": -0.544197,
        "name": "angers_parking_4_zid3X3T1AJ4",
        "station_id": "angers_parking_4_zid3X3T1AJ4"
      },
      {
        "is_virtual_station": true,
        "lat": 47.475359,
        "lon": -0.546037,
        "name": "angers_parking_3_zidO1SD263Z",
        "station_id": "angers_parking_3_zidO1SD263Z"
      },
      {
        "is_virtual_station": true,
        "lat": 47.477815,
        "lon": -0.576686,
        "name": "angers_parking_5_zid7D9GNB4Y",
        "station_id": "angers_parking_5_zid7D9GNB4Y"
      },
      {
        "is_virtual_station": true,
        "lat": 47.475631,
        "lon": -0.563668,
        "name": "angers_parking_2_zidMUNM1WBU",
        "station_id": "angers_parking_2_zidMUNM1WBU"
      },
      {
        "is_virtual_station": true,
        "lat": 47.443783,
        "lon": -0.553797,
        "name": "angers_parking_3_zidA89KOVEB",
        "station_id": "angers_parking_3_zidA89KOVEB"
      },
      {
        "is_virtual_station": true,
        "lat": 47.468375,
        "lon": -0.558349,
        "name": "angers_parking_4_zidMEF0JGJ6",
        "station_id": "angers_parking_4_zidMEF0JGJ6"
      },
      {
        "is_virtual_station": true,
        "lat": 47.469302,
        "lon": -0.556481,
        "name": "angers_parking_2_zid0XPBJBPX",
        "station_id": "angers_parking_2_zid0XPBJBPX"
      },
      {
        "is_virtual_station": true,
        "lat": 47.469089,
        "lon": -0.550009,
        "name": "angers_parking_3_zidT1AJ152S",
        "station_id": "angers_parking_3_zidT1AJ152S"
      },
      {
        "is_virtual_station": true,
        "lat": 47.478025,
        "lon": -0.567257,
        "name": "angers_parking_2_zidQSLTMPII",
        "station_id": "angers_parking_2_zidQSLTMPII"
      },
      {
        "is_virtual_station": true,
        "lat": 47.480439,
        "lon": -0.566575,
        "name": "angers_parking_3_zid16MJLNAN",
        "station_id": "angers_parking_3_zid16MJLNAN"
      },
      {
        "is_virtual_station": true,
        "lat": 47.47349621712311,
        "lon": -0.5865411451498246,
        "name": "angers_parking_1_zidSXHV3IFL",
        "station_id": "angers_parking_1_zidSXHV3IFL"
      },
      {
        "is_virtual_station": true,
        "lat": 47.471395,
        "lon": -0.568057,
        "name": "angers_parking_1_zidA3DXL6H4",
        "station_id": "angers_parking_1_zidA3DXL6H4"
      },
      {
        "is_virtual_station": true,
        "lat": 47.466756,
        "lon": -0.557097,
        "name": "angers_parking_2_zidMMBGSBBJ",
        "station_id": "angers_parking_2_zidMMBGSBBJ"
      },
      {
        "is_virtual_station": true,
        "lat": 47.486998,
        "lon": -0.522106,
        "name": "angers_parking_6_zidYU208MOS",
        "station_id": "angers_parking_6_zidYU208MOS"
      },
      {
        "is_virtual_station": true,
        "lat": 47.46688,
        "lon": -0.546224,
        "name": "angers_parking_2_zidO70T4LZK",
        "station_id": "angers_parking_2_zidO70T4LZK"
      },
      {
        "is_virtual_station": true,
        "lat": 47.470152,
        "lon": -0.566808,
        "name": "angers_parking_3_zid2R5DTROJ",
        "station_id": "angers_parking_3_zid2R5DTROJ"
      },
      {
        "is_virtual_station": true,
        "lat": 47.464994,
        "lon": -0.552882,
        "name": "angers_parking_5_zid6E99R4L8",
        "station_id": "angers_parking_5_zid6E99R4L8"
      },
      {
        "is_virtual_station": true,
        "lat": 47.452821,
        "lon": -0.525696,
        "name": "angers_parking_3_zidU72Z139I",
        "station_id": "angers_parking_3_zidU72Z139I"
      },
      {
        "is_virtual_station": true,
        "lat": 47.470411,
        "lon": -0.566318,
        "name": "angers_parking_3_zidLYJYGWXJ",
        "station_id": "angers_parking_3_zidLYJYGWXJ"
      },
      {
        "is_virtual_station": true,
        "lat": 47.471304300003595,
        "lon": -0.5381347026699771,
        "name": "angers_parking_8_zidXN9U8P19",
        "station_id": "angers_parking_8_zidXN9U8P19"
      },
      {
        "is_virtual_station": true,
        "lat": 47.462854,
        "lon": -0.554111,
        "name": "angers_parking_2_zid5EYEGU2O",
        "station_id": "angers_parking_2_zid5EYEGU2O"
      },
      {
        "is_virtual_station": true,
        "lat": 47.470069,
        "lon": -0.568838,
        "name": "angers_parking_1_zid3R5M6BZV",
        "station_id": "angers_parking_1_zid3R5M6BZV"
      },
      {
        "is_virtual_station": true,
        "lat": 47.47285,
        "lon": -0.565252,
        "name": "angers_parking_3_zidY9X08WIN",
        "station_id": "angers_parking_3_zidY9X08WIN"
      },
      {
        "is_virtual_station": true,
        "lat": 47.473822,
        "lon": -0.54491,
        "name": "angers_parking_8_zidCD5J98V1",
        "station_id": "angers_parking_8_zidCD5J98V1"
      },
      {
        "is_virtual_station": true,
        "lat": 47.471028,
        "lon": -0.547067,
        "name": "angers_parking_2_zid5JVLQ3J9",
        "station_id": "angers_parking_2_zid5JVLQ3J9"
      },
      {
        "is_virtual_station": true,
        "lat": 47.473739,
        "lon": -0.569637,
        "name": "angers_parking_2_zidVXK4YKUR",
        "station_id": "angers_parking_2_zidVXK4YKUR"
      },
      {
        "is_virtual_station": true,
        "lat": 47.472888,
        "lon": -0.56633,
        "name": "angers_parking_2_zidEGVIME74",
        "station_id": "angers_parking_2_zidEGVIME74"
      },
      {
        "is_virtual_station": true,
        "lat": 47.473037,
        "lon": -0.566112,
        "name": "angers_parking_1_zidL3IG85GQ",
        "station_id": "angers_parking_1_zidL3IG85GQ"
      },
      {
        "is_virtual_station": true,
        "lat": 47.49277,
        "lon": -0.571878,
        "name": "angers_parking_6_zidZVO62NHJ",
        "station_id": "angers_parking_6_zidZVO62NHJ"
      },
      {
        "is_virtual_station": true,
        "lat": 47.492673,
        "lon": -0.572327,
        "name": "angers_parking_6_zidKJOCX6WW",
        "station_id": "angers_parking_6_zidKJOCX6WW"
      },
      {
        "is_virtual_station": true,
        "lat": 47.487039,
        "lon": -0.526517,
        "name": "angers_parking_4_zid8DZS0TIS",
        "station_id": "angers_parking_4_zid8DZS0TIS"
      },
      {
        "is_virtual_station": true,
        "lat": 47.467201,
        "lon": -0.544734,
        "name": "angers_parking_3_zidK3E4G0EO",
        "station_id": "angers_parking_3_zidK3E4G0EO"
      },
      {
        "is_virtual_station": true,
        "lat": 47.477429,
        "lon": -0.530971,
        "name": "angers_parking_1_zidI9AX0JHB",
        "station_id": "angers_parking_1_zidI9AX0JHB"
      },
      {
        "is_virtual_station": true,
        "lat": 47.473817,
        "lon": -0.539675,
        "name": "angers_parking_3_zidFDCA6N86",
        "station_id": "angers_parking_3_zidFDCA6N86"
      },
      {
        "is_virtual_station": true,
        "lat": 47.473257,
        "lon": -0.599421,
        "name": "angers_parking_3_zid8IWC3KWG",
        "station_id": "angers_parking_3_zid8IWC3KWG"
      },
      {
        "is_virtual_station": true,
        "lat": 47.473661,
        "lon": -0.541629,
        "name": "angers_parking_6_zidUEZE23NG",
        "station_id": "angers_parking_6_zidUEZE23NG"
      },
      {
        "is_virtual_station": true,
        "lat": 47.468953,
        "lon": -0.540102,
        "name": "angers_parking_2_zidON1CNMCO",
        "station_id": "angers_parking_2_zidON1CNMCO"
      },
      {
        "is_virtual_station": true,
        "lat": 47.468213,
        "lon": -0.537445,
        "name": "angers_parking_2_zidELK138XX",
        "station_id": "angers_parking_2_zidELK138XX"
      },
      {
        "is_virtual_station": true,
        "lat": 47.469367,
        "lon": -0.554302,
        "name": "angers_parking_9_zidBAYY4Y85",
        "station_id": "angers_parking_9_zidBAYY4Y85"
      },
      {
        "is_virtual_station": true,
        "lat": 47.476874,
        "lon": -0.566336,
        "name": "angers_parking_2_zid8P2WETZL",
        "station_id": "angers_parking_2_zid8P2WETZL"
      },
      {
        "is_virtual_station": true,
        "lat": 47.494589,
        "lon": -0.574955,
        "name": "angers_parking_6_zidRQVPQDTW",
        "station_id": "angers_parking_6_zidRQVPQDTW"
      },
      {
        "is_virtual_station": true,
        "lat": 47.479306,
        "lon": -0.563283,
        "name": "angers_parking_4_zid2PNLK3AX",
        "station_id": "angers_parking_4_zid2PNLK3AX"
      },
      {
        "is_virtual_station": true,
        "lat": 47.476296,
        "lon": -0.566063,
        "name": "angers_parking_3_zidFLELCLA6",
        "station_id": "angers_parking_3_zidFLELCLA6"
      },
      {
        "is_virtual_station": true,
        "lat": 47.476025,
        "lon": -0.566518,
        "name": "angers_parking_3_zid5O79OQR8",
        "station_id": "angers_parking_3_zid5O79OQR8"
      },
      {
        "is_virtual_station": true,
        "lat": 47.473754,
        "lon": -0.563838,
        "name": "angers_parking_1_zid8KFTFZ6Z",
        "station_id": "angers_parking_1_zid8KFTFZ6Z"
      },
      {
        "is_virtual_station": true,
        "lat": 47.473889,
        "lon": -0.562489,
        "name": "angers_parking_3_zid2PO02FDH",
        "station_id": "angers_parking_3_zid2PO02FDH"
      },
      {
        "is_virtual_station": true,
        "lat": 47.474726,
        "lon": -0.564015,
        "name": "angers_parking_4_zid9HONP9XN",
        "station_id": "angers_parking_4_zid9HONP9XN"
      },
      {
        "is_virtual_station": true,
        "lat": 47.475086,
        "lon": -0.567386,
        "name": "angers_parking_3_zidR8OBHKMW",
        "station_id": "angers_parking_3_zidR8OBHKMW"
      },
      {
        "is_virtual_station": true,
        "lat": 47.476818,
        "lon": -0.546368,
        "name": "angers_parking_2_zidVAT8IPH3",
        "station_id": "angers_parking_2_zidVAT8IPH3"
      },
      {
        "is_virtual_station": true,
        "lat": 47.480462,
        "lon": -0.603444,
        "name": "angers_parking_6_zidFPLTN2H8",
        "station_id": "angers_parking_6_zidFPLTN2H8"
      },
      {
        "capacity": 3,
        "is_virtual_station": true,
        "lat": 47.46038,
        "lon": -0.546186,
        "name": "angers_parking_2_zid7BA8XYQA",
        "station_id": "angers_parking_2_zid7BA8XYQA"
      },
      {
        "is_virtual_station": true,
        "lat": 47.476707,
        "lon": -0.542739,
        "name": "angers_parking_2_zidCNY5QAGI",
        "station_id": "angers_parking_2_zidCNY5QAGI"
      },
      {
        "is_virtual_station": true,
        "lat": 47.480522,
        "lon": -0.531072,
        "name": "angers_parking_2_zidR353APUE",
        "station_id": "angers_parking_2_zidR353APUE"
      },
      {
        "is_virtual_station": true,
        "lat": 47.466723,
        "lon": -0.553454,
        "name": "angers_parking_4_zidUPRC4U3L",
        "station_id": "angers_parking_4_zidUPRC4U3L"
      },
      {
        "is_virtual_station": true,
        "lat": 47.458842,
        "lon": -0.558526,
        "name": "angers_parking_2_zidUZNY0QNO",
        "station_id": "angers_parking_2_zidUZNY0QNO"
      },
      {
        "is_virtual_station": true,
        "lat": 47.475058,
        "lon": -0.525714,
        "name": "angers_parking_1_zid6EW9HHVQ",
        "station_id": "angers_parking_1_zid6EW9HHVQ"
      },
      {
        "is_virtual_station": true,
        "lat": 47.473767,
        "lon": -0.539896,
        "name": "angers_parking_3_zid1WQZ0RYL",
        "station_id": "angers_parking_3_zid1WQZ0RYL"
      },
      {
        "is_virtual_station": true,
        "lat": 47.46219503050066,
        "lon": -0.5409774592400819,
        "name": "angers_parking_1_zid8C5C5JIJ",
        "station_id": "angers_parking_1_zid8C5C5JIJ"
      },
      {
        "is_virtual_station": true,
        "lat": 47.469167,
        "lon": -0.552982,
        "name": "angers_parking_1_zidBE9VMR8S",
        "station_id": "angers_parking_1_zidBE9VMR8S"
      },
      {
        "is_virtual_station": true,
        "lat": 47.479027,
        "lon": -0.564668,
        "name": "angers_parking_2_zidUT3ZKHAK",
        "station_id": "angers_parking_2_zidUT3ZKHAK"
      },
      {
        "is_virtual_station": true,
        "lat": 47.476085,
        "lon": -0.565215,
        "name": "angers_parking_2_zidG9X5CXHA",
        "station_id": "angers_parking_2_zidG9X5CXHA"
      },
      {
        "is_virtual_station": true,
        "lat": 47.466821,
        "lon": -0.552362,
        "name": "angers_parking_3_zidB5TVUSLX",
        "station_id": "angers_parking_3_zidB5TVUSLX"
      },
      {
        "is_virtual_station": true,
        "lat": 47.467456,
        "lon": -0.54587,
        "name": "angers_parking_2_zidJEBZ0683",
        "station_id": "angers_parking_2_zidJEBZ0683"
      },
      {
        "is_virtual_station": true,
        "lat": 47.459583,
        "lon": -0.521933,
        "name": "angers_parking_3_zidFWY41NIH",
        "station_id": "angers_parking_3_zidFWY41NIH"
      },
      {
        "is_virtual_station": true,
        "lat": 47.471822,
        "lon": -0.564637,
        "name": "angers_parking_6_zidCHN200ZL",
        "station_id": "angers_parking_6_zidCHN200ZL"
      },
      {
        "is_virtual_station": true,
        "lat": 47.48664,
        "lon": -0.526991,
        "name": "angers_parking_7_zidQPIZCS4M",
        "station_id": "angers_parking_7_zidQPIZCS4M"
      },
      {
        "is_virtual_station": true,
        "lat": 47.482324,
        "lon": -0.571902,
        "name": "angers_parking_6_zidA3MZE5GQ",
        "station_id": "angers_parking_6_zidA3MZE5GQ"
      },
      {
        "is_virtual_station": true,
        "lat": 47.479811,
        "lon": -0.57199,
        "name": "angers_parking_3_zidCNGDVR6Q",
        "station_id": "angers_parking_3_zidCNGDVR6Q"
      },
      {
        "is_virtual_station": true,
        "lat": 47.479015,
        "lon": -0.536625,
        "name": "angers_parking_3_zidHLL0SQUS",
        "station_id": "angers_parking_3_zidHLL0SQUS"
      },
      {
        "is_virtual_station": true,
        "lat": 47.471054,
        "lon": -0.58964,
        "name": "angers_parking_9_zid1XPR3D2R",
        "station_id": "angers_parking_9_zid1XPR3D2R"
      },
      {
        "is_virtual_station": true,
        "lat": 47.488562,
        "lon": -0.514334,
        "name": "angers_parking_4_zid6ENP4UEP",
        "station_id": "angers_parking_4_zid6ENP4UEP"
      },
      {
        "is_virtual_station": true,
        "lat": 47.464566,
        "lon": -0.548458,
        "name": "angers_parking_1_zid3EXCLO2A",
        "station_id": "angers_parking_1_zid3EXCLO2A"
      },
      {
        "is_virtual_station": true,
        "lat": 47.445188,
        "lon": -0.563189,
        "name": "angers_parking_4_zid08PNUM4U",
        "station_id": "angers_parking_4_zid08PNUM4U"
      },
      {
        "is_virtual_station": true,
        "lat": 47.461632,
        "lon": -0.554676,
        "name": "angers_parking_4_zidPW116XWO",
        "station_id": "angers_parking_4_zidPW116XWO"
      },
      {
        "is_virtual_station": true,
        "lat": 47.467228,
        "lon": -0.546958,
        "name": "angers_parking_4_zid831EUQ0U",
        "station_id": "angers_parking_4_zid831EUQ0U"
      },
      {
        "is_virtual_station": true,
        "lat": 47.477468,
        "lon": -0.575876,
        "name": "angers_parking_2_zidNC40DPUQ",
        "station_id": "angers_parking_2_zidNC40DPUQ"
      },
      {
        "is_virtual_station": true,
        "lat": 47.47282,
        "lon": -0.582122,
        "name": "angers_parking_6_zid2TSBOUJY",
        "station_id": "angers_parking_6_zid2TSBOUJY"
      },
      {
        "is_virtual_station": true,
        "lat": 47.475531,
        "lon": -0.571444,
        "name": "angers_parking_6_zid1PFGHP18",
        "station_id": "angers_parking_6_zid1PFGHP18"
      },
      {
        "is_virtual_station": true,
        "lat": 47.48710405490421,
        "lon": -0.5524880346489575,
        "name": "angers_parking_15_zidMI8GSEU7",
        "station_id": "angers_parking_15_zidMI8GSEU7"
      },
      {
        "is_virtual_station": true,
        "lat": 47.492218,
        "lon": -0.552181,
        "name": "angers_parking_5_zidWHGT3WW5",
        "station_id": "angers_parking_5_zidWHGT3WW5"
      },
      {
        "is_virtual_station": true,
        "lat": 47.467116,
        "lon": -0.545039,
        "name": "angers_parking_2_zidPBPJFEQP",
        "station_id": "angers_parking_2_zidPBPJFEQP"
      },
      {
        "is_virtual_station": true,
        "lat": 47.449093,
        "lon": -0.563882,
        "name": "angers_parking_4_zidCETZQZQE",
        "station_id": "angers_parking_4_zidCETZQZQE"
      },
      {
        "is_virtual_station": true,
        "lat": 47.452497,
        "lon": -0.525044,
        "name": "angers_parking_5_zidIUA6BFZX",
        "station_id": "angers_parking_5_zidIUA6BFZX"
      },
      {
        "is_virtual_station": true,
        "lat": 47.471969,
        "lon": -0.551716,
        "name": "angers_parking_8_zidC7W5DPU3",
        "station_id": "angers_parking_8_zidC7W5DPU3"
      },
      {
        "is_virtual_station": true,
        "lat": 47.451971,
        "lon": -0.554341,
        "name": "angers_parking_6_zidBNFVTOZ8",
        "station_id": "angers_parking_6_zidBNFVTOZ8"
      },
      {
        "is_virtual_station": true,
        "lat": 47.471239,
        "lon": -0.546326,
        "name": "angers_parking_3_zidS64J581S",
        "station_id": "angers_parking_3_zidS64J581S"
      },
      {
        "is_virtual_station": true,
        "lat": 47.470057,
        "lon": -0.554653,
        "name": "angers_parking_3_zidJWDZKPRX",
        "station_id": "angers_parking_3_zidJWDZKPRX"
      },
      {
        "is_virtual_station": true,
        "lat": 47.468262,
        "lon": -0.554387,
        "name": "angers_parking_1_zidHOSHD78T",
        "station_id": "angers_parking_1_zidHOSHD78T"
      },
      {
        "is_virtual_station": true,
        "lat": 47.468308,
        "lon": -0.554306,
        "name": "angers_parking_2_zid9LP5U52N",
        "station_id": "angers_parking_2_zid9LP5U52N"
      },
      {
        "is_virtual_station": true,
        "lat": 47.46879,
        "lon": -0.553591,
        "name": "angers_parking_7_zidYZJYLUN7",
        "station_id": "angers_parking_7_zidYZJYLUN7"
      },
      {
        "is_virtual_station": true,
        "lat": 47.46609,
        "lon": -0.551959,
        "name": "angers_parking_2_zidE9GD2IS2",
        "station_id": "angers_parking_2_zidE9GD2IS2"
      },
      {
        "is_virtual_station": true,
        "lat": 47.468681,
        "lon": -0.539376,
        "name": "angers_parking_3_zidXLKT1NPH",
        "station_id": "angers_parking_3_zidXLKT1NPH"
      },
      {
        "is_virtual_station": true,
        "lat": 47.450944,
        "lon": -0.556825,
        "name": "angers_parking_2_zidW0H96MJU",
        "station_id": "angers_parking_2_zidW0H96MJU"
      },
      {
        "is_virtual_station": true,
        "lat": 47.467609,
        "lon": -0.550417,
        "name": "angers_parking_4_zidV9RQCVYX",
        "station_id": "angers_parking_4_zidV9RQCVYX"
      },
      {
        "is_virtual_station": true,
        "lat": 47.470205,
        "lon": -0.554523,
        "name": "angers_parking_5_zidRURK2EAP",
        "station_id": "angers_parking_5_zidRURK2EAP"
      },
      {
        "is_virtual_station": true,
        "lat": 47.487268,
        "lon": -0.524637,
        "name": "angers_parking_3_zid0IV60KBO",
        "station_id": "angers_parking_3_zid0IV60KBO"
      },
      {
        "is_virtual_station": true,
        "lat": 47.452181,
        "lon": -0.524997,
        "name": "angers_parking_2_zidTHHYE0RS",
        "station_id": "angers_parking_2_zidTHHYE0RS"
      },
      {
        "is_virtual_station": true,
        "lat": 47.479918,
        "lon": -0.526587,
        "name": "angers_parking_3_zidYGK3BEC1",
        "station_id": "angers_parking_3_zidYGK3BEC1"
      },
      {
        "is_virtual_station": true,
        "lat": 47.476083,
        "lon": -0.547992,
        "name": "angers_parking_2_zidC6YHTKJ9",
        "station_id": "angers_parking_2_zidC6YHTKJ9"
      },
      {
        "is_virtual_station": true,
        "lat": 47.465354,
        "lon": -0.550067,
        "name": "angers_parking_2_zidANCFJTJG",
        "station_id": "angers_parking_2_zidANCFJTJG"
      },
      {
        "is_virtual_station": true,
        "lat": 47.491174,
        "lon": -0.552713,
        "name": "angers_parking_5_zidMLMAYQ0F",
        "station_id": "angers_parking_5_zidMLMAYQ0F"
      },
      {
        "is_virtual_station": true,
        "lat": 47.494819,
        "lon": -0.561925,
        "name": "angers_parking_6_zid7V5X7JSZ",
        "station_id": "angers_parking_6_zid7V5X7JSZ"
      },
      {
        "is_virtual_station": true,
        "lat": 47.501936,
        "lon": -0.58218,
        "name": "angers_parking_3_zidEH0GIPJQ",
        "station_id": "angers_parking_3_zidEH0GIPJQ"
      },
      {
        "is_virtual_station": true,
        "lat": 47.50148,
        "lon": -0.582518,
        "name": "angers_parking_3_zidYPJMN35I",
        "station_id": "angers_parking_3_zidYPJMN35I"
      },
      {
        "is_virtual_station": true,
        "lat": 47.461491,
        "lon": -0.561876,
        "name": "angers_parking_5_zid2TWGV2M3",
        "station_id": "angers_parking_5_zid2TWGV2M3"
      },
      {
        "is_virtual_station": true,
        "lat": 47.476877,
        "lon": -0.547386,
        "name": "angers_parking_6_zidYN6F5PDG",
        "station_id": "angers_parking_6_zidYN6F5PDG"
      },
      {
        "is_virtual_station": true,
        "lat": 47.470442,
        "lon": -0.551697,
        "name": "angers_parking_8_zid2CD7TZOT",
        "station_id": "angers_parking_8_zid2CD7TZOT"
      },
      {
        "is_virtual_station": true,
        "lat": 47.474756,
        "lon": -0.529432,
        "name": "angers_parking_3_zidPXELCT54",
        "station_id": "angers_parking_3_zidPXELCT54"
      },
      {
        "is_virtual_station": true,
        "lat": 47.455756,
        "lon": -0.538209,
        "name": "angers_parking_3_zidOKBWFUBA",
        "station_id": "angers_parking_3_zidOKBWFUBA"
      },
      {
        "is_virtual_station": true,
        "lat": 47.474525,
        "lon": -0.54165,
        "name": "angers_parking_3_zidLZGZXON3",
        "station_id": "angers_parking_3_zidLZGZXON3"
      },
      {
        "is_virtual_station": true,
        "lat": 47.479494,
        "lon": -0.600282,
        "name": "angers_parking_5_zidCEZEU2WZ",
        "station_id": "angers_parking_5_zidCEZEU2WZ"
      },
      {
        "is_virtual_station": true,
        "lat": 47.467184,
        "lon": -0.546892,
        "name": "angers_parking_3_zidWLF3P0RX",
        "station_id": "angers_parking_3_zidWLF3P0RX"
      },
      {
        "is_virtual_station": true,
        "lat": 47.467313,
        "lon": -0.546756,
        "name": "angers_parking_2_zidR9NWCDUG",
        "station_id": "angers_parking_2_zidR9NWCDUG"
      },
      {
        "is_virtual_station": true,
        "lat": 47.472271,
        "lon": -0.546549,
        "name": "angers_parking_3_zidQQBRJIJU",
        "station_id": "angers_parking_3_zidQQBRJIJU"
      },
      {
        "is_virtual_station": true,
        "lat": 47.472051,
        "lon": -0.546717,
        "name": "angers_parking_4_zidGNRTJN96",
        "station_id": "angers_parking_4_zidGNRTJN96"
      },
      {
        "is_virtual_station": true,
        "lat": 47.468103,
        "lon": -0.551093,
        "name": "angers_parking_4_zidUPYW61SC",
        "station_id": "angers_parking_4_zidUPYW61SC"
      },
      {
        "is_virtual_station": true,
        "lat": 47.452231,
        "lon": -0.527057,
        "name": "angers_parking_4_zidFYXKQAHF",
        "station_id": "angers_parking_4_zidFYXKQAHF"
      },
      {
        "is_virtual_station": true,
        "lat": 47.489416,
        "lon": -0.536499,
        "name": "angers_parking_10_zidCQLDW4TT",
        "station_id": "angers_parking_10_zidCQLDW4TT"
      },
      {
        "is_virtual_station": true,
        "lat": 47.477961,
        "lon": -0.598382,
        "name": "angers_parking_2_zidZ85KDQHD",
        "station_id": "angers_parking_2_zidZ85KDQHD"
      },
      {
        "is_virtual_station": true,
        "lat": 47.48713,
        "lon": -0.524483,
        "name": "angers_parking_6_zid979LW2OG",
        "station_id": "angers_parking_6_zid979LW2OG"
      },
      {
        "is_virtual_station": true,
        "lat": 47.501758,
        "lon": -0.582035,
        "name": "angers_parking_3_zidRPDHTG5Z",
        "station_id": "angers_parking_3_zidRPDHTG5Z"
      },
      {
        "is_virtual_station": true,
        "lat": 47.491295,
        "lon": -0.564207,
        "name": "angers_parking_2_zid4SZDZMNW",
        "station_id": "angers_parking_2_zid4SZDZMNW"
      },
      {
        "is_virtual_station": true,
        "lat": 47.488655,
        "lon": -0.559815,
        "name": "angers_parking_3_zidLT0O8RNW",
        "station_id": "angers_parking_3_zidLT0O8RNW"
      },
      {
        "is_virtual_station": true,
        "lat": 47.489809,
        "lon": -0.55823,
        "name": "angers_parking_4_zidHO2JD4Y6",
        "station_id": "angers_parking_4_zidHO2JD4Y6"
      },
      {
        "is_virtual_station": true,
        "lat": 47.464638,
        "lon": -0.559599,
        "name": "angers_parking_8_zidHKQF3SSZ",
        "station_id": "angers_parking_8_zidHKQF3SSZ"
      },
      {
        "is_virtual_station": true,
        "lat": 47.479136,
        "lon": -0.60022,
        "name": "angers_parking_10_zidFVJNHS02",
        "station_id": "angers_parking_10_zidFVJNHS02"
      },
      {
        "is_virtual_station": true,
        "lat": 47.473346,
        "lon": -0.596123,
        "name": "angers_parking_2_zidRTXON79Q",
        "station_id": "angers_parking_2_zidRTXON79Q"
      },
      {
        "is_virtual_station": true,
        "lat": 47.459263,
        "lon": -0.536808,
        "name": "angers_parking_3_zid625Q5NEI",
        "station_id": "angers_parking_3_zid625Q5NEI"
      },
      {
        "is_virtual_station": true,
        "lat": 47.464452,
        "lon": -0.548295,
        "name": "angers_parking_2_zidOUKW9DMN",
        "station_id": "angers_parking_2_zidOUKW9DMN"
      },
      {
        "is_virtual_station": true,
        "lat": 47.467065,
        "lon": -0.549512,
        "name": "angers_parking_5_zidJ3BNYDX0",
        "station_id": "angers_parking_5_zidJ3BNYDX0"
      },
      {
        "is_virtual_station": true,
        "lat": 47.470849,
        "lon": -0.545096,
        "name": "angers_parking_3_zidXCM3PCCA",
        "station_id": "angers_parking_3_zidXCM3PCCA"
      },
      {
        "is_virtual_station": true,
        "lat": 47.472644,
        "lon": -0.537592,
        "name": "angers_parking_3_zidXS3GSS8Z",
        "station_id": "angers_parking_3_zidXS3GSS8Z"
      },
      {
        "is_virtual_station": true,
        "lat": 47.469851,
        "lon": -0.54742,
        "name": "angers_parking_3_zid5GSJA59Q",
        "station_id": "angers_parking_3_zid5GSJA59Q"
      },
      {
        "is_virtual_station": true,
        "lat": 47.46928,
        "lon": -0.554465,
        "name": "angers_parking_9_zidAUHAJUUA",
        "station_id": "angers_parking_9_zidAUHAJUUA"
      },
      {
        "is_virtual_station": true,
        "lat": 47.447426,
        "lon": -0.562123,
        "name": "angers_parking_3_zidLIP0MNJJ",
        "station_id": "angers_parking_3_zidLIP0MNJJ"
      },
      {
        "is_virtual_station": true,
        "lat": 47.448348,
        "lon": -0.562791,
        "name": "angers_parking_2_zid4QNXRH5P",
        "station_id": "angers_parking_2_zid4QNXRH5P"
      },
      {
        "is_virtual_station": true,
        "lat": 47.458488,
        "lon": -0.553632,
        "name": "angers_parking_3_zidAO23A5VA",
        "station_id": "angers_parking_3_zidAO23A5VA"
      },
      {
        "is_virtual_station": true,
        "lat": 47.461163,
        "lon": -0.55458,
        "name": "angers_parking_3_zid4W4KBAAP",
        "station_id": "angers_parking_3_zid4W4KBAAP"
      },
      {
        "is_virtual_station": true,
        "lat": 47.473809,
        "lon": -0.567605,
        "name": "angers_parking_1_zidY7M5Y0XB",
        "station_id": "angers_parking_1_zidY7M5Y0XB"
      },
      {
        "is_virtual_station": true,
        "lat": 47.466781,
        "lon": -0.554205,
        "name": "angers_parking_4_zidQMZD992N",
        "station_id": "angers_parking_4_zidQMZD992N"
      },
      {
        "is_virtual_station": true,
        "lat": 47.470388,
        "lon": -0.550936,
        "name": "angers_parking_3_zidNQQJMOBT",
        "station_id": "angers_parking_3_zidNQQJMOBT"
      },
      {
        "is_virtual_station": true,
        "lat": 47.475925,
        "lon": -0.595153,
        "name": "angers_parking_3_zidW6PX23QF",
        "station_id": "angers_parking_3_zidW6PX23QF"
      },
      {
        "is_virtual_station": true,
        "lat": 47.459459,
        "lon": -0.615603,
        "name": "angers_parking_6_zid3AWY3DSF",
        "station_id": "angers_parking_6_zid3AWY3DSF"
      },
      {
        "is_virtual_station": true,
        "lat": 47.477885,
        "lon": -0.556936,
        "name": "angers_parking_2_zidD93ZALXU",
        "station_id": "angers_parking_2_zidD93ZALXU"
      },
      {
        "is_virtual_station": true,
        "lat": 47.470793,
        "lon": -0.568051,
        "name": "angers_parking_2_zid15M8GJRW",
        "station_id": "angers_parking_2_zid15M8GJRW"
      },
      {
        "is_virtual_station": true,
        "lat": 47.487082,
        "lon": -0.521949,
        "name": "angers_parking_3_zidMJEF0Q0X",
        "station_id": "angers_parking_3_zidMJEF0Q0X"
      },
      {
        "is_virtual_station": true,
        "lat": 47.459551,
        "lon": -0.56053,
        "name": "angers_parking_7_zidAEO79JIG",
        "station_id": "angers_parking_7_zidAEO79JIG"
      },
      {
        "is_virtual_station": true,
        "lat": 47.472218,
        "lon": -0.563559,
        "name": "angers_parking_3_zidSDK6Z940",
        "station_id": "angers_parking_3_zidSDK6Z940"
      },
      {
        "is_virtual_station": true,
        "lat": 47.47951,
        "lon": -0.556317,
        "name": "angers_parking_3_zidFWOR0OGA",
        "station_id": "angers_parking_3_zidFWOR0OGA"
      },
      {
        "is_virtual_station": true,
        "lat": 47.470617,
        "lon": -0.547415,
        "name": "angers_parking_2_zidF9JDQMUC",
        "station_id": "angers_parking_2_zidF9JDQMUC"
      },
      {
        "is_virtual_station": true,
        "lat": 47.470223,
        "lon": -0.55518,
        "name": "angers_parking_3_zidJ86KSZE4",
        "station_id": "angers_parking_3_zidJ86KSZE4"
      },
      {
        "is_virtual_station": true,
        "lat": 47.471628,
        "lon": -0.542837,
        "name": "angers_parking_3_zid41P43NZV",
        "station_id": "angers_parking_3_zid41P43NZV"
      },
      {
        "is_virtual_station": true,
        "lat": 47.470621,
        "lon": -0.558667,
        "name": "angers_parking_2_zid2YR7STV7",
        "station_id": "angers_parking_2_zid2YR7STV7"
      },
      {
        "is_virtual_station": true,
        "lat": 47.444242,
        "lon": -0.562788,
        "name": "angers_parking_8_zid05RMKXO2",
        "station_id": "angers_parking_8_zid05RMKXO2"
      },
      {
        "is_virtual_station": true,
        "lat": 47.468285,
        "lon": -0.606764,
        "name": "angers_parking_5_zidBZF1WJJA",
        "station_id": "angers_parking_5_zidBZF1WJJA"
      },
      {
        "is_virtual_station": true,
        "lat": 47.465009,
        "lon": -0.549024,
        "name": "angers_parking_2_zidZLFCNLUH",
        "station_id": "angers_parking_2_zidZLFCNLUH"
      },
      {
        "is_virtual_station": true,
        "lat": 47.486534,
        "lon": -0.526483,
        "name": "angers_parking_6_zidKC8WTR3J",
        "station_id": "angers_parking_6_zidKC8WTR3J"
      },
      {
        "is_virtual_station": true,
        "lat": 47.473661,
        "lon": -0.580965,
        "name": "angers_parking_2_zidAUO1V07K",
        "station_id": "angers_parking_2_zidAUO1V07K"
      },
      {
        "is_virtual_station": true,
        "lat": 47.472357,
        "lon": -0.550725,
        "name": "angers_parking_7_zidK5RDM7P0",
        "station_id": "angers_parking_7_zidK5RDM7P0"
      },
      {
        "is_virtual_station": true,
        "lat": 47.477791,
        "lon": -0.582755,
        "name": "angers_parking_2_zid0QZOW3WZ",
        "station_id": "angers_parking_2_zid0QZOW3WZ"
      },
      {
        "is_virtual_station": true,
        "lat": 47.473248,
        "lon": -0.594519,
        "name": "angers_parking_1_zid50VG7XGH",
        "station_id": "angers_parking_1_zid50VG7XGH"
      },
      {
        "is_virtual_station": true,
        "lat": 47.473376,
        "lon": -0.54234,
        "name": "angers_parking_5_zid37JB6YYM",
        "station_id": "angers_parking_5_zid37JB6YYM"
      },
      {
        "is_virtual_station": true,
        "lat": 47.469426,
        "lon": -0.552321,
        "name": "angers_parking_6_zidZQ695FAA",
        "station_id": "angers_parking_6_zidZQ695FAA"
      },
      {
        "is_virtual_station": true,
        "lat": 47.472069,
        "lon": -0.541006,
        "name": "angers_parking_4_zidPLUI0UMY",
        "station_id": "angers_parking_4_zidPLUI0UMY"
      },
      {
        "is_virtual_station": true,
        "lat": 47.478133,
        "lon": -0.556739,
        "name": "angers_parking_6_zidGBJYD7RC",
        "station_id": "angers_parking_6_zidGBJYD7RC"
      },
      {
        "is_virtual_station": true,
        "lat": 47.480893,
        "lon": -0.564081,
        "name": "angers_parking_4_zidMFEBPC9B",
        "station_id": "angers_parking_4_zidMFEBPC9B"
      },
      {
        "is_virtual_station": true,
        "lat": 47.479347,
        "lon": -0.527712,
        "name": "angers_parking_2_zidE635O28J",
        "station_id": "angers_parking_2_zidE635O28J"
      },
      {
        "is_virtual_station": true,
        "lat": 47.479398,
        "lon": -0.527618,
        "name": "angers_parking_2_zid6DRL9N5Z",
        "station_id": "angers_parking_2_zid6DRL9N5Z"
      },
      {
        "is_virtual_station": true,
        "lat": 47.466869,
        "lon": -0.552312,
        "name": "angers_parking_2_zidZ5PCO0QV",
        "station_id": "angers_parking_2_zidZ5PCO0QV"
      },
      {
        "is_virtual_station": true,
        "lat": 47.466741,
        "lon": -0.552906,
        "name": "angers_parking_5_zid19YTGC3U",
        "station_id": "angers_parking_5_zid19YTGC3U"
      },
      {
        "is_virtual_station": true,
        "lat": 47.466919,
        "lon": -0.552663,
        "name": "angers_parking_6_zidTQTO0UWX",
        "station_id": "angers_parking_6_zidTQTO0UWX"
      },
      {
        "is_virtual_station": true,
        "lat": 47.489293,
        "lon": -0.561177,
        "name": "angers_parking_6_zidYNR7IPII",
        "station_id": "angers_parking_6_zidYNR7IPII"
      },
      {
        "is_virtual_station": true,
        "lat": 47.491436,
        "lon": -0.562952,
        "name": "angers_parking_3_zidUQPDB30H",
        "station_id": "angers_parking_3_zidUQPDB30H"
      },
      {
        "is_virtual_station": true,
        "lat": 47.493746,
        "lon": -0.57497,
        "name": "angers_parking_3_zid8PNIFUZY",
        "station_id": "angers_parking_3_zid8PNIFUZY"
      },
      {
        "is_virtual_station": true,
        "lat": 47.478623,
        "lon": -0.569826,
        "name": "angers_parking_3_zidNSQI92TJ",
        "station_id": "angers_parking_3_zidNSQI92TJ"
      },
      {
        "is_virtual_station": true,
        "lat": 47.475269,
        "lon": -0.562878,
        "name": "angers_parking_3_zid15GSCC0J",
        "station_id": "angers_parking_3_zid15GSCC0J"
      },
      {
        "is_virtual_station": true,
        "lat": 47.473586,
        "lon": -0.564262,
        "name": "angers_parking_3_zidR6D9RR1B",
        "station_id": "angers_parking_3_zidR6D9RR1B"
      },
      {
        "is_virtual_station": true,
        "lat": 47.473733,
        "lon": -0.563779,
        "name": "angers_parking_4_zid51RPUBA6",
        "station_id": "angers_parking_4_zid51RPUBA6"
      },
      {
        "is_virtual_station": true,
        "lat": 47.475127,
        "lon": -0.565942,
        "name": "angers_parking_5_zid15S14LGY",
        "station_id": "angers_parking_5_zid15S14LGY"
      },
      {
        "is_virtual_station": true,
        "lat": 47.469866,
        "lon": -0.552224,
        "name": "angers_parking_1_zid3YRLJHFY",
        "station_id": "angers_parking_1_zid3YRLJHFY"
      },
      {
        "is_virtual_station": true,
        "lat": 47.465891,
        "lon": -0.552544,
        "name": "angers_parking_3_zidNWKHP7QZ",
        "station_id": "angers_parking_3_zidNWKHP7QZ"
      },
      {
        "is_virtual_station": true,
        "lat": 47.476005,
        "lon": -0.543773,
        "name": "angers_parking_3_zidOWPMMVX7",
        "station_id": "angers_parking_3_zidOWPMMVX7"
      },
      {
        "is_virtual_station": true,
        "lat": 47.480144,
        "lon": -0.532876,
        "name": "angers_parking_4_zidCN00WL01",
        "station_id": "angers_parking_4_zidCN00WL01"
      },
      {
        "is_virtual_station": true,
        "lat": 47.444881,
        "lon": -0.562582,
        "name": "angers_parking_8_zidRVZOYK08",
        "station_id": "angers_parking_8_zidRVZOYK08"
      },
      {
        "is_virtual_station": true,
        "lat": 47.452315,
        "lon": -0.546519,
        "name": "angers_parking_3_zidSR8Y01OC",
        "station_id": "angers_parking_3_zidSR8Y01OC"
      },
      {
        "is_virtual_station": true,
        "lat": 47.475089,
        "lon": -0.598694,
        "name": "angers_parking_3_zid2N1SQVLT",
        "station_id": "angers_parking_3_zid2N1SQVLT"
      },
      {
        "is_virtual_station": true,
        "lat": 47.478657,
        "lon": -0.556716,
        "name": "angers_parking_2_zid5TY2P5AK",
        "station_id": "angers_parking_2_zid5TY2P5AK"
      },
      {
        "is_virtual_station": true,
        "lat": 47.467547,
        "lon": -0.545948,
        "name": "angers_parking_3_zidI1UXI5X1",
        "station_id": "angers_parking_3_zidI1UXI5X1"
      },
      {
        "is_virtual_station": true,
        "lat": 47.459478,
        "lon": -0.522294,
        "name": "angers_parking_3_zid9WZHT367",
        "station_id": "angers_parking_3_zid9WZHT367"
      },
      {
        "is_virtual_station": true,
        "lat": 47.471921,
        "lon": -0.564776,
        "name": "angers_parking_4_zidAW0ASZVL",
        "station_id": "angers_parking_4_zidAW0ASZVL"
      },
      {
        "is_virtual_station": true,
        "lat": 47.472216,
        "lon": -0.565155,
        "name": "angers_parking_6_zidTPAEBR2X",
        "station_id": "angers_parking_6_zidTPAEBR2X"
      },
      {
        "is_virtual_station": true,
        "lat": 47.474219,
        "lon": -0.562303,
        "name": "angers_parking_4_zid7JLESHUV",
        "station_id": "angers_parking_4_zid7JLESHUV"
      },
      {
        "is_virtual_station": true,
        "lat": 47.479209,
        "lon": -0.558196,
        "name": "angers_parking_2_zidJEAQ8OLZ",
        "station_id": "angers_parking_2_zidJEAQ8OLZ"
      },
      {
        "is_virtual_station": true,
        "lat": 47.461389,
        "lon": -0.613997,
        "name": "angers_parking_4_zidZPCRFFWB",
        "station_id": "angers_parking_4_zidZPCRFFWB"
      },
      {
        "is_virtual_station": true,
        "lat": 47.479681,
        "lon": -0.593021,
        "name": "angers_parking_2_zidYYOKBVFD",
        "station_id": "angers_parking_2_zidYYOKBVFD"
      },
      {
        "is_virtual_station": true,
        "lat": 47.460294,
        "lon": -0.537406,
        "name": "angers_parking_3_zidUUIIE8H0",
        "station_id": "angers_parking_3_zidUUIIE8H0"
      },
      {
        "is_virtual_station": true,
        "lat": 47.451939,
        "lon": -0.57054,
        "name": "angers_parking_3_zid7LW2GL89",
        "station_id": "angers_parking_3_zid7LW2GL89"
      },
      {
        "is_virtual_station": true,
        "lat": 47.49006323424637,
        "lon": -0.521776344727761,
        "name": "angers_parking_3_zidEJ808HJO",
        "station_id": "angers_parking_3_zidEJ808HJO",
        "vehicle_capacity": {},
        "vehicle_type_capacity": {},
        "vehicle_types_capacity": []
      },
      {
        "is_virtual_station": true,
        "lat": 47.489525,
        "lon": -0.527206,
        "name": "angers_parking_3_zidCUF2U36G",
        "station_id": "angers_parking_3_zidCUF2U36G"
      },
      {
        "is_virtual_station": true,
        "lat": 47.48405,
        "lon": -0.515723,
        "name": "angers_parking_4_zid8NBNCXP5",
        "station_id": "angers_parking_4_zid8NBNCXP5"
      },
      {
        "is_virtual_station": true,
        "lat": 47.463112,
        "lon": -0.552495,
        "name": "angers_parking_2_zidWYLLGSDG",
        "station_id": "angers_parking_2_zidWYLLGSDG"
      },
      {
        "is_virtual_station": true,
        "lat": 47.474417,
        "lon": -0.532268,
        "name": "angers_parking_3_zidT6I991M0",
        "station_id": "angers_parking_3_zidT6I991M0"
      },
      {
        "is_virtual_station": true,
        "lat": 47.449894,
        "lon": -0.555294,
        "name": "angers_parking_2_zidAWSHL0OB",
        "station_id": "angers_parking_2_zidAWSHL0OB"
      },
      {
        "is_virtual_station": true,
        "lat": 47.445171,
        "lon": -0.561962,
        "name": "angers_parking_4_zid2BEV9XUX",
        "station_id": "angers_parking_4_zid2BEV9XUX"
      },
      {
        "is_virtual_station": true,
        "lat": 47.468723,
        "lon": -0.62015,
        "name": "angers_parking_4_zid6I9XAZYK",
        "station_id": "angers_parking_4_zid6I9XAZYK"
      },
      {
        "is_virtual_station": true,
        "lat": 47.467307,
        "lon": -0.5469,
        "name": "angers_parking_3_zidDS7QUY19",
        "station_id": "angers_parking_3_zidDS7QUY19"
      },
      {
        "is_virtual_station": true,
        "lat": 47.467163,
        "lon": -0.545097,
        "name": "angers_parking_2_zid8G5Q1GJ2",
        "station_id": "angers_parking_2_zid8G5Q1GJ2"
      },
      {
        "is_virtual_station": true,
        "lat": 47.458418,
        "lon": -0.554082,
        "name": "angers_parking_4_zid6HDUIU2L",
        "station_id": "angers_parking_4_zid6HDUIU2L"
      },
      {
        "is_virtual_station": true,
        "lat": 47.477924,
        "lon": -0.607561,
        "name": "angers_parking_4_zidEQAB0ORZ",
        "station_id": "angers_parking_4_zidEQAB0ORZ"
      },
      {
        "is_virtual_station": true,
        "lat": 47.470266,
        "lon": -0.558278,
        "name": "angers_parking_4_zidT8C217IY",
        "station_id": "angers_parking_4_zidT8C217IY"
      },
      {
        "is_virtual_station": true,
        "lat": 47.469581,
        "lon": -0.550481,
        "name": "angers_parking_4_zidPFIPCPHX",
        "station_id": "angers_parking_4_zidPFIPCPHX"
      },
      {
        "is_virtual_station": true,
        "lat": 47.469682,
        "lon": -0.550426,
        "name": "angers_parking_4_zidV0XIDW8S",
        "station_id": "angers_parking_4_zidV0XIDW8S"
      },
      {
        "is_virtual_station": true,
        "lat": 47.469492,
        "lon": -0.550302,
        "name": "angers_parking_4_zidKAFDE3HP",
        "station_id": "angers_parking_4_zidKAFDE3HP"
      },
      {
        "is_virtual_station": true,
        "lat": 47.470393,
        "lon": -0.548169,
        "name": "angers_parking_5_zid82DQTYWR",
        "station_id": "angers_parking_5_zid82DQTYWR"
      },
      {
        "is_virtual_station": true,
        "lat": 47.471656,
        "lon": -0.549499,
        "name": "angers_parking_3_zidMPC5IHZL",
        "station_id": "angers_parking_3_zidMPC5IHZL"
      },
      {
        "is_virtual_station": true,
        "lat": 47.471281,
        "lon": -0.549894,
        "name": "angers_parking_3_zidXIPIQZLA",
        "station_id": "angers_parking_3_zidXIPIQZLA"
      },
      {
        "is_virtual_station": true,
        "lat": 47.472385,
        "lon": -0.550767,
        "name": "angers_parking_1_zidMAMGABKU",
        "station_id": "angers_parking_1_zidMAMGABKU"
      },
      {
        "is_virtual_station": true,
        "lat": 47.469739,
        "lon": -0.54397,
        "name": "angers_parking_6_zidW7YDD02I",
        "station_id": "angers_parking_6_zidW7YDD02I"
      },
      {
        "is_virtual_station": true,
        "lat": 47.493154,
        "lon": -0.55994,
        "name": "angers_parking_5_zid9LTVIGM4",
        "station_id": "angers_parking_5_zid9LTVIGM4"
      },
      {
        "is_virtual_station": true,
        "lat": 47.492272,
        "lon": -0.55343,
        "name": "angers_parking_3_zidYOW5MCJ2",
        "station_id": "angers_parking_3_zidYOW5MCJ2"
      },
      {
        "is_virtual_station": true,
        "lat": 47.492396,
        "lon": -0.553381,
        "name": "angers_parking_5_zid90TFXO9J",
        "station_id": "angers_parking_5_zid90TFXO9J"
      },
      {
        "is_virtual_station": true,
        "lat": 47.46661,
        "lon": -0.546428,
        "name": "angers_parking_1_zid1N17AR2N",
        "station_id": "angers_parking_1_zid1N17AR2N"
      },
      {
        "is_virtual_station": true,
        "lat": 47.45232,
        "lon": -0.538415,
        "name": "angers_parking_5_zidVV3PMINZ",
        "station_id": "angers_parking_5_zidVV3PMINZ"
      },
      {
        "is_virtual_station": true,
        "lat": 47.451032,
        "lon": -0.532655,
        "name": "angers_parking_2_zidMGWXOSJA",
        "station_id": "angers_parking_2_zidMGWXOSJA"
      },
      {
        "is_virtual_station": true,
        "lat": 47.470831,
        "lon": -0.605278,
        "name": "angers_parking_4_zid9DA8KVL8",
        "station_id": "angers_parking_4_zid9DA8KVL8"
      },
      {
        "is_virtual_station": true,
        "lat": 47.471092,
        "lon": -0.551042,
        "name": "angers_parking_3_zid4Z7PZCG7",
        "station_id": "angers_parking_3_zid4Z7PZCG7"
      },
      {
        "is_virtual_station": true,
        "lat": 47.479419,
        "lon": -0.557453,
        "name": "angers_parking_7_zid74GW7I2R",
        "station_id": "angers_parking_7_zid74GW7I2R"
      },
      {
        "is_virtual_station": true,
        "lat": 47.472908,
        "lon": -0.545543,
        "name": "angers_parking_4_zidI72GF7L4",
        "station_id": "angers_parking_4_zidI72GF7L4"
      },
      {
        "is_virtual_station": true,
        "lat": 47.472623,
        "lon": -0.546242,
        "name": "angers_parking_4_zid3JXLVYUP",
        "station_id": "angers_parking_4_zid3JXLVYUP"
      },
      {
        "is_virtual_station": true,
        "lat": 47.475923,
        "lon": -0.585887,
        "name": "angers_parking_5_zidLP4BBYDL",
        "station_id": "angers_parking_5_zidLP4BBYDL"
      },
      {
        "is_virtual_station": true,
        "lat": 47.467937,
        "lon": -0.554886,
        "name": "angers_parking_1_zidMJNNK5G0",
        "station_id": "angers_parking_1_zidMJNNK5G0"
      },
      {
        "is_virtual_station": true,
        "lat": 47.466229,
        "lon": -0.552705,
        "name": "angers_parking_3_zidUNI2WFZG",
        "station_id": "angers_parking_3_zidUNI2WFZG"
      },
      {
        "is_virtual_station": true,
        "lat": 47.465982,
        "lon": -0.552503,
        "name": "angers_parking_5_zid0R3ZY0TT",
        "station_id": "angers_parking_5_zid0R3ZY0TT"
      },
      {
        "is_virtual_station": true,
        "lat": 47.451694,
        "lon": -0.554496,
        "name": "angers_parking_7_zid5QGBHP5W",
        "station_id": "angers_parking_7_zid5QGBHP5W"
      },
      {
        "is_virtual_station": true,
        "lat": 47.468047,
        "lon": -0.551424,
        "name": "angers_parking_2_zidYMGQPDF3",
        "station_id": "angers_parking_2_zidYMGQPDF3"
      },
      {
        "is_virtual_station": true,
        "lat": 47.470022,
        "lon": -0.585283,
        "name": "angers_parking_10_zidPDNI84HF",
        "station_id": "angers_parking_10_zidPDNI84HF"
      },
      {
        "is_virtual_station": true,
        "lat": 47.451133,
        "lon": -0.555132,
        "name": "angers_parking_2_zid0QLNB4UQ",
        "station_id": "angers_parking_2_zid0QLNB4UQ"
      },
      {
        "is_virtual_station": true,
        "lat": 47.45193,
        "lon": -0.555289,
        "name": "angers_parking_4_zidIHSRT7ZY",
        "station_id": "angers_parking_4_zidIHSRT7ZY"
      },
      {
        "is_virtual_station": true,
        "lat": 47.467888,
        "lon": -0.554968,
        "name": "angers_parking_2_zidXKD3D1YG",
        "station_id": "angers_parking_2_zidXKD3D1YG"
      },
      {
        "is_virtual_station": true,
        "lat": 47.473905,
        "lon": -0.576407,
        "name": "angers_parking_4_zidJMFKN44I",
        "station_id": "angers_parking_4_zidJMFKN44I"
      },
      {
        "is_virtual_station": true,
        "lat": 47.458944,
        "lon": -0.553021,
        "name": "angers_parking_3_zidFGV8KO8H",
        "station_id": "angers_parking_3_zidFGV8KO8H"
      },
      {
        "is_virtual_station": true,
        "lat": 47.46732,
        "lon": -0.555573,
        "name": "angers_parking_4_zidANP8B9Z0",
        "station_id": "angers_parking_4_zidANP8B9Z0"
      },
      {
        "is_virtual_station": true,
        "lat": 47.492389,
        "lon": -0.560891,
        "name": "angers_parking_7_zidDY13IRE6",
        "station_id": "angers_parking_7_zidDY13IRE6"
      },
      {
        "is_virtual_station": true,
        "lat": 47.464232,
        "lon": -0.559268,
        "name": "angers_parking_12_zid2PZSUWNH",
        "station_id": "angers_parking_12_zid2PZSUWNH"
      },
      {
        "is_virtual_station": true,
        "lat": 47.480338,
        "lon": -0.57138,
        "name": "angers_parking_4_zidSNOKEVZ9",
        "station_id": "angers_parking_4_zidSNOKEVZ9"
      },
      {
        "is_virtual_station": true,
        "lat": 47.47754,
        "lon": -0.559297,
        "name": "angers_parking_2_zidOAFRHTCI",
        "station_id": "angers_parking_2_zidOAFRHTCI"
      },
      {
        "is_virtual_station": true,
        "lat": 47.447241,
        "lon": -0.561991,
        "name": "angers_parking_2_zid3CFINT69",
        "station_id": "angers_parking_2_zid3CFINT69"
      },
      {
        "is_virtual_station": true,
        "lat": 47.465933,
        "lon": -0.551564,
        "name": "angers_parking_3_zidBN2A1RD8",
        "station_id": "angers_parking_3_zidBN2A1RD8"
      },
      {
        "is_virtual_station": true,
        "lat": 47.472312,
        "lon": -0.576225,
        "name": "angers_parking_3_zid5KA0I7JE",
        "station_id": "angers_parking_3_zid5KA0I7JE"
      },
      {
        "is_virtual_station": true,
        "lat": 47.453073,
        "lon": -0.525709,
        "name": "angers_parking_2_zidEFQ088GM",
        "station_id": "angers_parking_2_zidEFQ088GM"
      },
      {
        "is_virtual_station": true,
        "lat": 47.453594,
        "lon": -0.526951,
        "name": "angers_parking_3_zid62R947HG",
        "station_id": "angers_parking_3_zid62R947HG"
      },
      {
        "is_virtual_station": true,
        "lat": 47.480401,
        "lon": -0.602693,
        "name": "angers_parking_9_zidM8N29EQ9",
        "station_id": "angers_parking_9_zidM8N29EQ9"
      },
      {
        "is_virtual_station": true,
        "lat": 47.470731,
        "lon": -0.558808,
        "name": "angers_parking_4_zid5FHZ38MK",
        "station_id": "angers_parking_4_zid5FHZ38MK"
      },
      {
        "is_virtual_station": true,
        "lat": 47.47965,
        "lon": -0.527125,
        "name": "angers_parking_2_zidV81S089L",
        "station_id": "angers_parking_2_zidV81S089L"
      },
      {
        "is_virtual_station": true,
        "lat": 47.494712,
        "lon": -0.574944,
        "name": "angers_parking_6_zidQJHJ8PUC",
        "station_id": "angers_parking_6_zidQJHJ8PUC"
      },
      {
        "is_virtual_station": true,
        "lat": 47.493402,
        "lon": -0.551629,
        "name": "angers_parking_4_zidYRHVJ4E0",
        "station_id": "angers_parking_4_zidYRHVJ4E0"
      },
      {
        "is_virtual_station": true,
        "lat": 47.474069,
        "lon": -0.562762,
        "name": "angers_parking_1_zidXJCZB8RJ",
        "station_id": "angers_parking_1_zidXJCZB8RJ"
      },
      {
        "is_virtual_station": true,
        "lat": 47.50145,
        "lon": -0.582467,
        "name": "angers_parking_3_zidR26DJI5I",
        "station_id": "angers_parking_3_zidR26DJI5I"
      },
      {
        "is_virtual_station": true,
        "lat": 47.502168,
        "lon": -0.581822,
        "name": "angers_parking_3_zidFH8VEM6P",
        "station_id": "angers_parking_3_zidFH8VEM6P"
      },
      {
        "is_virtual_station": true,
        "lat": 47.461787,
        "lon": -0.562121,
        "name": "angers_parking_3_zid7AIXGV3U",
        "station_id": "angers_parking_3_zid7AIXGV3U"
      },
      {
        "is_virtual_station": true,
        "lat": 47.461608,
        "lon": -0.561979,
        "name": "angers_parking_3_zid1SGCVTIU",
        "station_id": "angers_parking_3_zid1SGCVTIU"
      },
      {
        "is_virtual_station": true,
        "lat": 47.470817,
        "lon": -0.544612,
        "name": "angers_parking_6_zid7QO9G0UF",
        "station_id": "angers_parking_6_zid7QO9G0UF"
      },
      {
        "is_virtual_station": true,
        "lat": 47.476485,
        "lon": -0.539398,
        "name": "angers_parking_4_zidYIC3MS2B",
        "station_id": "angers_parking_4_zidYIC3MS2B"
      },
      {
        "is_virtual_station": true,
        "lat": 47.459789,
        "lon": -0.521283,
        "name": "angers_parking_4_zidTC0CHDIO",
        "station_id": "angers_parking_4_zidTC0CHDIO"
      },
      {
        "is_virtual_station": true,
        "lat": 47.459861,
        "lon": -0.521254,
        "name": "angers_parking_4_zid1YCUWMM6",
        "station_id": "angers_parking_4_zid1YCUWMM6"
      },
      {
        "is_virtual_station": true,
        "lat": 47.481113,
        "lon": -0.567094,
        "name": "angers_parking_2_zid4N4OTVXU",
        "station_id": "angers_parking_2_zid4N4OTVXU"
      },
      {
        "is_virtual_station": true,
        "lat": 47.483048,
        "lon": -0.569517,
        "name": "angers_parking_2_zidAPG5JGXV",
        "station_id": "angers_parking_2_zidAPG5JGXV"
      },
      {
        "is_virtual_station": true,
        "lat": 47.475646,
        "lon": -0.567004,
        "name": "angers_parking_2_zidBX35BN0U",
        "station_id": "angers_parking_2_zidBX35BN0U"
      },
      {
        "is_virtual_station": true,
        "lat": 47.47389,
        "lon": -0.544826,
        "name": "angers_parking_6_zidV8CBCGSH",
        "station_id": "angers_parking_6_zidV8CBCGSH"
      },
      {
        "is_virtual_station": true,
        "lat": 47.461865,
        "lon": -0.612596,
        "name": "angers_parking_4_zid3PF5HUYE",
        "station_id": "angers_parking_4_zid3PF5HUYE"
      },
      {
        "is_virtual_station": true,
        "lat": 47.471849,
        "lon": -0.537601,
        "name": "angers_parking_2_zidQBHW62XR",
        "station_id": "angers_parking_2_zidQBHW62XR"
      },
      {
        "is_virtual_station": true,
        "lat": 47.462255,
        "lon": -0.553493,
        "name": "angers_parking_6_zid5L3ICLEG",
        "station_id": "angers_parking_6_zid5L3ICLEG"
      },
      {
        "is_virtual_station": true,
        "lat": 47.47107,
        "lon": -0.603947,
        "name": "angers_parking_4_zidPSZIQ9GH",
        "station_id": "angers_parking_4_zidPSZIQ9GH"
      },
      {
        "is_virtual_station": true,
        "lat": 47.474948,
        "lon": -0.525493,
        "name": "angers_parking_2_zidHLERMYFE",
        "station_id": "angers_parking_2_zidHLERMYFE"
      },
      {
        "is_virtual_station": true,
        "lat": 47.47905,
        "lon": -0.570268,
        "name": "angers_parking_1_zidYJ9NXYHI",
        "station_id": "angers_parking_1_zidYJ9NXYHI"
      },
      {
        "is_virtual_station": true,
        "lat": 47.473925,
        "lon": -0.567733,
        "name": "angers_parking_8_zidEROV36K8",
        "station_id": "angers_parking_8_zidEROV36K8"
      },
      {
        "is_virtual_station": true,
        "lat": 47.473397,
        "lon": -0.566617,
        "name": "angers_parking_2_zidF08LZHWB",
        "station_id": "angers_parking_2_zidF08LZHWB"
      },
      {
        "is_virtual_station": true,
        "lat": 47.451074,
        "lon": -0.556388,
        "name": "angers_parking_5_zidCDBQF2G8",
        "station_id": "angers_parking_5_zidCDBQF2G8"
      },
      {
        "is_virtual_station": true,
        "lat": 47.470276,
        "lon": -0.552018,
        "name": "angers_parking_3_zidCVIOUC8R",
        "station_id": "angers_parking_3_zidCVIOUC8R"
      },
      {
        "is_virtual_station": true,
        "lat": 47.471801,
        "lon": -0.544465,
        "name": "angers_parking_3_zid5PZ1N36T",
        "station_id": "angers_parking_3_zid5PZ1N36T"
      },
      {
        "is_virtual_station": true,
        "lat": 47.468279,
        "lon": -0.537622,
        "name": "angers_parking_1_zid1PED36HK",
        "station_id": "angers_parking_1_zid1PED36HK"
      },
      {
        "is_virtual_station": true,
        "lat": 47.471598,
        "lon": -0.551884,
        "name": "angers_parking_6_zid3J370CJK",
        "station_id": "angers_parking_6_zid3J370CJK"
      },
      {
        "is_virtual_station": true,
        "lat": 47.467463,
        "lon": -0.559023,
        "name": "angers_parking_1_zidH395HWRR",
        "station_id": "angers_parking_1_zidH395HWRR"
      },
      {
        "is_virtual_station": true,
        "lat": 47.466644,
        "lon": -0.553278,
        "name": "angers_parking_2_zid9QAOZTEF",
        "station_id": "angers_parking_2_zid9QAOZTEF"
      },
      {
        "is_virtual_station": true,
        "lat": 47.467679,
        "lon": -0.558854,
        "name": "angers_parking_2_zidWFTK5II5",
        "station_id": "angers_parking_2_zidWFTK5II5"
      },
      {
        "is_virtual_station": true,
        "lat": 47.468606,
        "lon": -0.539143,
        "name": "angers_parking_3_zid0DL3POM9",
        "station_id": "angers_parking_3_zid0DL3POM9"
      },
      {
        "is_virtual_station": true,
        "lat": 47.501831,
        "lon": -0.582099,
        "name": "angers_parking_2_zid5PKL7MEW",
        "station_id": "angers_parking_2_zid5PKL7MEW"
      },
      {
        "is_virtual_station": true,
        "lat": 47.473033,
        "lon": -0.545477,
        "name": "angers_parking_4_zidX64R7FRL",
        "station_id": "angers_parking_4_zidX64R7FRL"
      },
      {
        "is_virtual_station": true,
        "lat": 47.490092,
        "lon": -0.559114,
        "name": "angers_parking_5_zidWNFD44FK",
        "station_id": "angers_parking_5_zidWNFD44FK"
      },
      {
        "is_virtual_station": true,
        "lat": 47.468015,
        "lon": -0.551372,
        "name": "angers_parking_2_zid20EE0YS6",
        "station_id": "angers_parking_2_zid20EE0YS6"
      },
      {
        "is_virtual_station": true,
        "lat": 47.489656,
        "lon": -0.557722,
        "name": "angers_parking_4_zidVZLID0WW",
        "station_id": "angers_parking_4_zidVZLID0WW"
      },
      {
        "is_virtual_station": true,
        "lat": 47.485154,
        "lon": -0.55285,
        "name": "angers_parking_3_zidYR79WE85",
        "station_id": "angers_parking_3_zidYR79WE85"
      },
      {
        "is_virtual_station": true,
        "lat": 47.472324,
        "lon": -0.56531,
        "name": "angers_parking_4_zid10UV7FZS",
        "station_id": "angers_parking_4_zid10UV7FZS"
      },
      {
        "is_virtual_station": true,
        "lat": 47.485518,
        "lon": -0.553561,
        "name": "angers_parking_6_zid3TUZUAYR",
        "station_id": "angers_parking_6_zid3TUZUAYR"
      },
      {
        "is_virtual_station": true,
        "lat": 47.475544,
        "lon": -0.534509,
        "name": "angers_parking_2_zid4NDJ063I",
        "station_id": "angers_parking_2_zid4NDJ063I"
      },
      {
        "is_virtual_station": true,
        "lat": 47.469847,
        "lon": -0.550034,
        "name": "angers_parking_5_zidRQHZBC2X",
        "station_id": "angers_parking_5_zidRQHZBC2X"
      },
      {
        "is_virtual_station": true,
        "lat": 47.468385,
        "lon": -0.547542,
        "name": "angers_parking_3_zidR11K9IA5",
        "station_id": "angers_parking_3_zidR11K9IA5"
      },
      {
        "is_virtual_station": true,
        "lat": 47.452498,
        "lon": -0.524084,
        "name": "angers_parking_5_zidWFK6EKGA",
        "station_id": "angers_parking_5_zidWFK6EKGA"
      },
      {
        "is_virtual_station": true,
        "lat": 47.448381,
        "lon": -0.564044,
        "name": "angers_parking_1_zidN15NMNLD",
        "station_id": "angers_parking_1_zidN15NMNLD"
      },
      {
        "is_virtual_station": true,
        "lat": 47.479389,
        "lon": -0.586066,
        "name": "angers_parking_2_zidYB1ERW09",
        "station_id": "angers_parking_2_zidYB1ERW09"
      },
      {
        "is_virtual_station": true,
        "lat": 47.469183,
        "lon": -0.540735,
        "name": "angers_parking_2_zidY38STIU6",
        "station_id": "angers_parking_2_zidY38STIU6"
      },
      {
        "is_virtual_station": true,
        "lat": 47.451485,
        "lon": -0.55581,
        "name": "angers_parking_4_zidGB4JLAOX",
        "station_id": "angers_parking_4_zidGB4JLAOX"
      },
      {
        "is_virtual_station": true,
        "lat": 47.479522,
        "lon": -0.592986,
        "name": "angers_parking_4_zidYN868S3M",
        "station_id": "angers_parking_4_zidYN868S3M"
      },
      {
        "is_virtual_station": true,
        "lat": 47.491708,
        "lon": -0.561168,
        "name": "angers_parking_5_zidRZDX13TM",
        "station_id": "angers_parking_5_zidRZDX13TM"
      },
      {
        "is_virtual_station": true,
        "lat": 47.465055,
        "lon": -0.550014,
        "name": "angers_parking_3_zidDWE1C97B",
        "station_id": "angers_parking_3_zidDWE1C97B"
      },
      {
        "is_virtual_station": true,
        "lat": 47.465095,
        "lon": -0.55825,
        "name": "angers_parking_3_zidMX8CFIZ4",
        "station_id": "angers_parking_3_zidMX8CFIZ4"
      },
      {
        "is_virtual_station": true,
        "lat": 47.471309,
        "lon": -0.547357,
        "name": "angers_parking_4_zid4DFTJJ4M",
        "station_id": "angers_parking_4_zid4DFTJJ4M"
      },
      {
        "is_virtual_station": true,
        "lat": 47.465503,
        "lon": -0.555799,
        "name": "angers_parking_3_zidFLUG4SU9",
        "station_id": "angers_parking_3_zidFLUG4SU9"
      },
      {
        "is_virtual_station": true,
        "lat": 47.47306,
        "lon": -0.566587,
        "name": "angers_parking_1_zidQ027SLDH",
        "station_id": "angers_parking_1_zidQ027SLDH"
      },
      {
        "is_virtual_station": true,
        "lat": 47.472846,
        "lon": -0.566855,
        "name": "angers_parking_1_zid1HFN95QJ",
        "station_id": "angers_parking_1_zid1HFN95QJ"
      },
      {
        "is_virtual_station": true,
        "lat": 47.470492,
        "lon": -0.551705,
        "name": "angers_parking_6_zidKP11OOX2",
        "station_id": "angers_parking_6_zidKP11OOX2"
      },
      {
        "is_virtual_station": true,
        "lat": 47.471214106179296,
        "lon": -0.53841392355161,
        "name": "angers_parking_1_zid3LH7YJ9O",
        "station_id": "angers_parking_1_zid3LH7YJ9O"
      },
      {
        "is_virtual_station": true,
        "lat": 47.477763,
        "lon": -0.576625,
        "name": "angers_parking_3_zid1Z3HZX83",
        "station_id": "angers_parking_3_zid1Z3HZX83"
      },
      {
        "is_virtual_station": true,
        "lat": 47.463963,
        "lon": -0.554092,
        "name": "angers_parking_5_zid8JRGWATX",
        "station_id": "angers_parking_5_zid8JRGWATX"
      },
      {
        "is_virtual_station": true,
        "lat": 47.489048,
        "lon": -0.56271,
        "name": "angers_parking_4_zidPEQ73OK7",
        "station_id": "angers_parking_4_zidPEQ73OK7"
      },
      {
        "is_virtual_station": true,
        "lat": 47.445554,
        "lon": -0.562339,
        "name": "angers_parking_4_zidM3EF73LD",
        "station_id": "angers_parking_4_zidM3EF73LD"
      },
      {
        "is_virtual_station": true,
        "lat": 47.473608,
        "lon": -0.56413,
        "name": "angers_parking_3_zidB7JZGM2E",
        "station_id": "angers_parking_3_zidB7JZGM2E"
      },
      {
        "is_virtual_station": true,
        "lat": 47.488024,
        "lon": -0.557681,
        "name": "angers_parking_3_zid0TKQHYKD",
        "station_id": "angers_parking_3_zid0TKQHYKD"
      },
      {
        "is_virtual_station": true,
        "lat": 47.468543,
        "lon": -0.598653,
        "name": "angers_parking_2_zidP8GTGULM",
        "station_id": "angers_parking_2_zidP8GTGULM"
      },
      {
        "is_virtual_station": true,
        "lat": 47.470397,
        "lon": -0.568842,
        "name": "angers_parking_3_zidVN2OI39C",
        "station_id": "angers_parking_3_zidVN2OI39C"
      },
      {
        "is_virtual_station": true,
        "lat": 47.476155,
        "lon": -0.547701,
        "name": "angers_parking_7_zidGF7D3D8K",
        "station_id": "angers_parking_7_zidGF7D3D8K"
      },
      {
        "is_virtual_station": true,
        "lat": 47.445676,
        "lon": -0.561843,
        "name": "angers_parking_2_zidW5DLP6VW",
        "station_id": "angers_parking_2_zidW5DLP6VW"
      },
      {
        "is_virtual_station": true,
        "lat": 47.48093,
        "lon": -0.581582,
        "name": "angers_parking_5_zid8XDONOHG",
        "station_id": "angers_parking_5_zid8XDONOHG"
      },
      {
        "is_virtual_station": true,
        "lat": 47.448815,
        "lon": -0.564183,
        "name": "angers_parking_8_zidB8OI15T2",
        "station_id": "angers_parking_8_zidB8OI15T2"
      },
      {
        "is_virtual_station": true,
        "lat": 47.486149,
        "lon": -0.513384,
        "name": "angers_parking_5_zidTPM26OD7",
        "station_id": "angers_parking_5_zidTPM26OD7"
      },
      {
        "is_virtual_station": true,
        "lat": 47.477973,
        "lon": -0.567163,
        "name": "angers_parking_4_zid0QLY4KK3",
        "station_id": "angers_parking_4_zid0QLY4KK3"
      },
      {
        "is_virtual_station": true,
        "lat": 47.458696,
        "lon": -0.531372,
        "name": "angers_parking_6_zidYRS8OSRE",
        "station_id": "angers_parking_6_zidYRS8OSRE"
      },
      {
        "is_virtual_station": true,
        "lat": 47.46879,
        "lon": -0.552761,
        "name": "angers_parking_2_zidF7REV6NH",
        "station_id": "angers_parking_2_zidF7REV6NH"
      },
      {
        "is_virtual_station": true,
        "lat": 47.466352,
        "lon": -0.557079,
        "name": "angers_parking_4_zid3O19V8LI",
        "station_id": "angers_parking_4_zid3O19V8LI"
      },
      {
        "is_virtual_station": true,
        "lat": 47.468447,
        "lon": -0.552665,
        "name": "angers_parking_2_zid8K06KQDI",
        "station_id": "angers_parking_2_zid8K06KQDI"
      },
      {
        "is_virtual_station": true,
        "lat": 47.479389,
        "lon": -0.561236,
        "name": "angers_parking_2_zidYAH2KTYZ",
        "station_id": "angers_parking_2_zidYAH2KTYZ"
      },
      {
        "is_virtual_station": true,
        "lat": 47.471745,
        "lon": -0.546955,
        "name": "angers_parking_4_zidB6HOWQB8",
        "station_id": "angers_parking_4_zidB6HOWQB8"
      },
      {
        "is_virtual_station": true,
        "lat": 47.462307,
        "lon": -0.552797,
        "name": "angers_parking_7_zidRZACNUK1",
        "station_id": "angers_parking_7_zidRZACNUK1"
      },
      {
        "is_virtual_station": true,
        "lat": 47.464037,
        "lon": -0.531602,
        "name": "angers_parking_2_zidNOZ6HHLZ",
        "station_id": "angers_parking_2_zidNOZ6HHLZ"
      },
      {
        "is_virtual_station": true,
        "lat": 47.462027,
        "lon": -0.552472,
        "name": "angers_parking_2_zid1PU1MHJL",
        "station_id": "angers_parking_2_zid1PU1MHJL"
      },
      {
        "is_virtual_station": true,
        "lat": 47.472516,
        "lon": -0.539969,
        "name": "angers_parking_2_zidSO4E6NXZ",
        "station_id": "angers_parking_2_zidSO4E6NXZ"
      },
      {
        "is_virtual_station": true,
        "lat": 47.480442,
        "lon": -0.554975,
        "name": "angers_parking_4_zid2EFD8K2U",
        "station_id": "angers_parking_4_zid2EFD8K2U"
      },
      {
        "is_virtual_station": true,
        "lat": 47.488164,
        "lon": -0.536789,
        "name": "angers_parking_3_zidDSTD9ESP",
        "station_id": "angers_parking_3_zidDSTD9ESP"
      },
      {
        "is_virtual_station": true,
        "lat": 47.489428,
        "lon": -0.536364,
        "name": "angers_parking_10_zidHDWKXXIR",
        "station_id": "angers_parking_10_zidHDWKXXIR"
      },
      {
        "is_virtual_station": true,
        "lat": 47.468706,
        "lon": -0.539327,
        "name": "angers_parking_1_zid6PFLYZNI",
        "station_id": "angers_parking_1_zid6PFLYZNI"
      },
      {
        "is_virtual_station": true,
        "lat": 47.464918,
        "lon": -0.553402,
        "name": "angers_parking_2_zid4PT70PG6",
        "station_id": "angers_parking_2_zid4PT70PG6"
      },
      {
        "is_virtual_station": true,
        "lat": 47.468387,
        "lon": -0.597949,
        "name": "angers_parking_3_zidG3DIT290",
        "station_id": "angers_parking_3_zidG3DIT290"
      },
      {
        "is_virtual_station": true,
        "lat": 47.468414,
        "lon": -0.597664,
        "name": "angers_parking_1_zid0LL8VUUH",
        "station_id": "angers_parking_1_zid0LL8VUUH"
      },
      {
        "is_virtual_station": true,
        "lat": 47.492631,
        "lon": -0.565797,
        "name": "angers_parking_4_zidBM6XVDHI",
        "station_id": "angers_parking_4_zidBM6XVDHI"
      },
      {
        "is_virtual_station": true,
        "lat": 47.487306,
        "lon": -0.525865,
        "name": "angers_parking_3_zidPSMLPBCU",
        "station_id": "angers_parking_3_zidPSMLPBCU"
      },
      {
        "is_virtual_station": true,
        "lat": 47.467276,
        "lon": -0.60141,
        "name": "angers_parking_4_zid7QGH31UZ",
        "station_id": "angers_parking_4_zid7QGH31UZ"
      },
      {
        "is_virtual_station": true,
        "lat": 47.487146,
        "lon": -0.527054,
        "name": "angers_parking_5_zidWV9420U7",
        "station_id": "angers_parking_5_zidWV9420U7"
      },
      {
        "is_virtual_station": true,
        "lat": 47.468775,
        "lon": -0.549713,
        "name": "angers_parking_2_zidBXGT9GZI",
        "station_id": "angers_parking_2_zidBXGT9GZI"
      },
      {
        "is_virtual_station": true,
        "lat": 47.473716,
        "lon": -0.567468,
        "name": "angers_parking_1_zidVA4L6ERR",
        "station_id": "angers_parking_1_zidVA4L6ERR"
      },
      {
        "is_virtual_station": true,
        "lat": 47.474136,
        "lon": -0.566937,
        "name": "angers_parking_2_zid6GTNBXMZ",
        "station_id": "angers_parking_2_zid6GTNBXMZ"
      },
      {
        "is_virtual_station": true,
        "lat": 47.480318,
        "lon": -0.602724,
        "name": "angers_parking_5_zidJ2IY8SDV",
        "station_id": "angers_parking_5_zidJ2IY8SDV"
      },
      {
        "is_virtual_station": true,
        "lat": 47.486889,
        "lon": -0.525938,
        "name": "angers_parking_4_zidBW4B8HA2",
        "station_id": "angers_parking_4_zidBW4B8HA2"
      },
      {
        "is_virtual_station": true,
        "lat": 47.46591,
        "lon": -0.559213,
        "name": "angers_parking_4_zidVFM5KT2G",
        "station_id": "angers_parking_4_zidVFM5KT2G"
      },
      {
        "is_virtual_station": true,
        "lat": 47.477396,
        "lon": -0.531035,
        "name": "angers_parking_1_zidD5SKJJJX",
        "station_id": "angers_parking_1_zidD5SKJJJX"
      },
      {
        "is_virtual_station": true,
        "lat": 47.473009,
        "lon": -0.581434,
        "name": "angers_parking_3_zid5WQ3XCRJ",
        "station_id": "angers_parking_3_zid5WQ3XCRJ"
      },
      {
        "is_virtual_station": true,
        "lat": 47.473796,
        "lon": -0.581157,
        "name": "angers_parking_2_zidQK7B3PPF",
        "station_id": "angers_parking_2_zidQK7B3PPF"
      },
      {
        "is_virtual_station": true,
        "lat": 47.456146,
        "lon": -0.533811,
        "name": "angers_parking_3_zid8KA4L6QK",
        "station_id": "angers_parking_3_zid8KA4L6QK"
      },
      {
        "is_virtual_station": true,
        "lat": 47.475804,
        "lon": -0.585995,
        "name": "angers_parking_6_zid2SY70FGQ",
        "station_id": "angers_parking_6_zid2SY70FGQ"
      },
      {
        "is_virtual_station": true,
        "lat": 47.471904,
        "lon": -0.531213,
        "name": "angers_parking_5_zidEB0KDTW4",
        "station_id": "angers_parking_5_zidEB0KDTW4"
      },
      {
        "is_virtual_station": true,
        "lat": 47.472682,
        "lon": -0.53924,
        "name": "angers_parking_3_zid9CA8RFD1",
        "station_id": "angers_parking_3_zid9CA8RFD1"
      },
      {
        "is_virtual_station": true,
        "lat": 47.47849,
        "lon": -0.585007,
        "name": "angers_parking_2_zidZNKT94KK",
        "station_id": "angers_parking_2_zidZNKT94KK"
      },
      {
        "is_virtual_station": true,
        "lat": 47.458584,
        "lon": -0.5223,
        "name": "angers_parking_2_zidQVKGIK82",
        "station_id": "angers_parking_2_zidQVKGIK82"
      },
      {
        "is_virtual_station": true,
        "lat": 47.458867,
        "lon": -0.554187,
        "name": "angers_parking_2_zidQN4ZN81H",
        "station_id": "angers_parking_2_zidQN4ZN81H"
      },
      {
        "is_virtual_station": true,
        "lat": 47.468078,
        "lon": -0.551474,
        "name": "angers_parking_2_zidSLH2SBSQ",
        "station_id": "angers_parking_2_zidSLH2SBSQ"
      },
      {
        "is_virtual_station": true,
        "lat": 47.468784,
        "lon": -0.550228,
        "name": "angers_parking_9_zidYX87LCDR",
        "station_id": "angers_parking_9_zidYX87LCDR"
      },
      {
        "is_virtual_station": true,
        "lat": 47.469059,
        "lon": -0.549961,
        "name": "angers_parking_4_zidQVFSS2RX",
        "station_id": "angers_parking_4_zidQVFSS2RX"
      },
      {
        "is_virtual_station": true,
        "lat": 47.479462,
        "lon": -0.558743,
        "name": "angers_parking_14_zidJW1GN0DA",
        "station_id": "angers_parking_14_zidJW1GN0DA"
      },
      {
        "is_virtual_station": true,
        "lat": 47.466669,
        "lon": -0.548286,
        "name": "angers_parking_4_zidSUGKI21R",
        "station_id": "angers_parking_4_zidSUGKI21R"
      },
      {
        "is_virtual_station": true,
        "lat": 47.465249,
        "lon": -0.559129,
        "name": "angers_parking_4_zid9VT15HKB",
        "station_id": "angers_parking_4_zid9VT15HKB"
      },
      {
        "is_virtual_station": true,
        "lat": 47.475214,
        "lon": -0.535457,
        "name": "angers_parking_2_zidP2JAQY3F",
        "station_id": "angers_parking_2_zidP2JAQY3F"
      },
      {
        "is_virtual_station": true,
        "lat": 47.449676,
        "lon": -0.552727,
        "name": "angers_parking_6_zid959X16PN",
        "station_id": "angers_parking_6_zid959X16PN"
      },
      {
        "is_virtual_station": true,
        "lat": 47.472248,
        "lon": -0.540701,
        "name": "angers_parking_3_zidKEEKJA6D",
        "station_id": "angers_parking_3_zidKEEKJA6D"
      },
      {
        "is_virtual_station": true,
        "lat": 47.449551,
        "lon": -0.552702,
        "name": "angers_parking_4_zidKQEKT8QY",
        "station_id": "angers_parking_4_zidKQEKT8QY"
      },
      {
        "is_virtual_station": true,
        "lat": 47.479435,
        "lon": -0.557809,
        "name": "angers_parking_11_zidDGEN49B6",
        "station_id": "angers_parking_11_zidDGEN49B6"
      },
      {
        "is_virtual_station": true,
        "lat": 47.472893,
        "lon": -0.565137,
        "name": "angers_parking_3_zidJ2OIF3A5",
        "station_id": "angers_parking_3_zidJ2OIF3A5"
      },
      {
        "is_virtual_station": true,
        "lat": 47.491008,
        "lon": -0.563647,
        "name": "angers_parking_4_zidI4HU7IVO",
        "station_id": "angers_parking_4_zidI4HU7IVO"
      },
      {
        "is_virtual_station": true,
        "lat": 47.472617,
        "lon": -0.537491,
        "name": "angers_parking_3_zidMQL7H8K2",
        "station_id": "angers_parking_3_zidMQL7H8K2"
      },
      {
        "is_virtual_station": true,
        "lat": 47.491155,
        "lon": -0.561195,
        "name": "angers_parking_5_zidRJI4Q3LA",
        "station_id": "angers_parking_5_zidRJI4Q3LA"
      },
      {
        "is_virtual_station": true,
        "lat": 47.471804,
        "lon": -0.546912,
        "name": "angers_parking_4_zid3EJKAOD8",
        "station_id": "angers_parking_4_zid3EJKAOD8"
      },
      {
        "is_virtual_station": true,
        "lat": 47.495132,
        "lon": -0.574822,
        "name": "angers_parking_4_zidH0ZE2LX3",
        "station_id": "angers_parking_4_zidH0ZE2LX3"
      },
      {
        "is_virtual_station": true,
        "lat": 47.494819,
        "lon": -0.574961,
        "name": "angers_parking_3_zid9Q6DVDGH",
        "station_id": "angers_parking_3_zid9Q6DVDGH"
      },
      {
        "is_virtual_station": true,
        "lat": 47.457081,
        "lon": -0.553951,
        "name": "angers_parking_1_zidBBP310YH",
        "station_id": "angers_parking_1_zidBBP310YH"
      },
      {
        "is_virtual_station": true,
        "lat": 47.493592,
        "lon": -0.573374,
        "name": "angers_parking_1_zidE2MG4YIL",
        "station_id": "angers_parking_1_zidE2MG4YIL"
      },
      {
        "is_virtual_station": true,
        "lat": 47.460663,
        "lon": -0.554497,
        "name": "angers_parking_3_zidQ0F5RO6F",
        "station_id": "angers_parking_3_zidQ0F5RO6F"
      },
      {
        "is_virtual_station": true,
        "lat": 47.468606,
        "lon": -0.548715,
        "name": "angers_parking_2_zid6QDCD04Z",
        "station_id": "angers_parking_2_zid6QDCD04Z"
      },
      {
        "is_virtual_station": true,
        "lat": 47.462745,
        "lon": -0.554905,
        "name": "angers_parking_3_zidNN7BK0A8",
        "station_id": "angers_parking_3_zidNN7BK0A8"
      },
      {
        "is_virtual_station": true,
        "lat": 47.473214,
        "lon": -0.56678,
        "name": "angers_parking_1_zidFL4I7A72",
        "station_id": "angers_parking_1_zidFL4I7A72"
      },
      {
        "is_virtual_station": true,
        "lat": 47.476682,
        "lon": -0.587335,
        "name": "angers_parking_5_zidIQWT97T3",
        "station_id": "angers_parking_5_zidIQWT97T3"
      },
      {
        "is_virtual_station": true,
        "lat": 47.466984,
        "lon": -0.554787,
        "name": "angers_parking_4_zid2WPTV3SD",
        "station_id": "angers_parking_4_zid2WPTV3SD"
      },
      {
        "is_virtual_station": true,
        "lat": 47.476731,
        "lon": -0.587649,
        "name": "angers_parking_6_zid613WLB1E",
        "station_id": "angers_parking_6_zid613WLB1E"
      },
      {
        "is_virtual_station": true,
        "lat": 47.46751,
        "lon": -0.555429,
        "name": "angers_parking_4_zidZ8BK378D",
        "station_id": "angers_parking_4_zidZ8BK378D"
      },
      {
        "is_virtual_station": true,
        "lat": 47.478764,
        "lon": -0.564192,
        "name": "angers_parking_3_zidYDNOK8FB",
        "station_id": "angers_parking_3_zidYDNOK8FB"
      },
      {
        "is_virtual_station": true,
        "lat": 47.46646,
        "lon": -0.553385,
        "name": "angers_parking_4_zid4P31OTOC",
        "station_id": "angers_parking_4_zid4P31OTOC"
      },
      {
        "is_virtual_station": true,
        "lat": 47.473577,
        "lon": -0.584015,
        "name": "angers_parking_3_zidXYKL3Q3P",
        "station_id": "angers_parking_3_zidXYKL3Q3P"
      },
      {
        "is_virtual_station": true,
        "lat": 47.470866,
        "lon": -0.568734,
        "name": "angers_parking_1_zidGQTUNAAO",
        "station_id": "angers_parking_1_zidGQTUNAAO"
      },
      {
        "is_virtual_station": true,
        "lat": 47.475291,
        "lon": -0.56223,
        "name": "angers_parking_6_zidUCKAZG7V",
        "station_id": "angers_parking_6_zidUCKAZG7V"
      },
      {
        "is_virtual_station": true,
        "lat": 47.466834,
        "lon": -0.556753,
        "name": "angers_parking_2_zidW7FGIFHI",
        "station_id": "angers_parking_2_zidW7FGIFHI"
      },
      {
        "is_virtual_station": true,
        "lat": 47.466275,
        "lon": -0.562446,
        "name": "angers_parking_4_zidZDNR0TDH",
        "station_id": "angers_parking_4_zidZDNR0TDH"
      },
      {
        "is_virtual_station": true,
        "lat": 47.469805,
        "lon": -0.552288,
        "name": "angers_parking_3_zidA4A7ZE98",
        "station_id": "angers_parking_3_zidA4A7ZE98"
      },
      {
        "is_virtual_station": true,
        "lat": 47.464359,
        "lon": -0.531292,
        "name": "angers_parking_2_zidX0GWFVJA",
        "station_id": "angers_parking_2_zidX0GWFVJA"
      },
      {
        "is_virtual_station": true,
        "lat": 47.479227,
        "lon": -0.527982,
        "name": "angers_parking_2_zid8NJMJJ3E",
        "station_id": "angers_parking_2_zid8NJMJJ3E"
      },
      {
        "is_virtual_station": true,
        "lat": 47.46287,
        "lon": -0.553542,
        "name": "angers_parking_2_zid7KGDJZ9K",
        "station_id": "angers_parking_2_zid7KGDJZ9K"
      },
      {
        "is_virtual_station": true,
        "lat": 47.462268,
        "lon": -0.553205,
        "name": "angers_parking_6_zidSVNGGJXX",
        "station_id": "angers_parking_6_zidSVNGGJXX"
      },
      {
        "is_virtual_station": true,
        "lat": 47.458531,
        "lon": -0.552497,
        "name": "angers_parking_4_zidI4EY9V9M",
        "station_id": "angers_parking_4_zidI4EY9V9M"
      },
      {
        "is_virtual_station": true,
        "lat": 47.489672,
        "lon": -0.527333,
        "name": "angers_parking_2_zidPK68WR5X",
        "station_id": "angers_parking_2_zidPK68WR5X"
      },
      {
        "is_virtual_station": true,
        "lat": 47.46186,
        "lon": -0.519666,
        "name": "angers_parking_3_zidL8MLAQY0",
        "station_id": "angers_parking_3_zidL8MLAQY0"
      },
      {
        "is_virtual_station": true,
        "lat": 47.470028,
        "lon": -0.56736,
        "name": "angers_parking_3_zidJOMOY628",
        "station_id": "angers_parking_3_zidJOMOY628"
      },
      {
        "is_virtual_station": true,
        "lat": 47.453638,
        "lon": -0.526588,
        "name": "angers_parking_2_zidX2UHV81X",
        "station_id": "angers_parking_2_zidX2UHV81X"
      },
      {
        "is_virtual_station": true,
        "lat": 47.473832,
        "lon": -0.579738,
        "name": "angers_parking_2_zidMCNWYULT",
        "station_id": "angers_parking_2_zidMCNWYULT"
      },
      {
        "is_virtual_station": true,
        "lat": 47.453765,
        "lon": -0.526794,
        "name": "angers_parking_3_zidSG1T6JOU",
        "station_id": "angers_parking_3_zidSG1T6JOU"
      },
      {
        "is_virtual_station": true,
        "lat": 47.492099,
        "lon": -0.572309,
        "name": "angers_parking_3_zidBN0YU22Q",
        "station_id": "angers_parking_3_zidBN0YU22Q"
      },
      {
        "is_virtual_station": true,
        "lat": 47.478509,
        "lon": -0.564465,
        "name": "angers_parking_1_zidUYX56XQV",
        "station_id": "angers_parking_1_zidUYX56XQV"
      },
      {
        "is_virtual_station": true,
        "lat": 47.492356,
        "lon": -0.572512,
        "name": "angers_parking_2_zid6YSFWJ7I",
        "station_id": "angers_parking_2_zid6YSFWJ7I"
      },
      {
        "is_virtual_station": true,
        "lat": 47.475197,
        "lon": -0.561487,
        "name": "angers_parking_3_zidOH2YVT1T",
        "station_id": "angers_parking_3_zidOH2YVT1T"
      },
      {
        "is_virtual_station": true,
        "lat": 47.470462,
        "lon": -0.568973,
        "name": "angers_parking_3_zidIK4XHW8S",
        "station_id": "angers_parking_3_zidIK4XHW8S"
      },
      {
        "is_virtual_station": true,
        "lat": 47.477058,
        "lon": -0.565927,
        "name": "angers_parking_7_zidZK6V3W46",
        "station_id": "angers_parking_7_zidZK6V3W46"
      },
      {
        "is_virtual_station": true,
        "lat": 47.473958,
        "lon": -0.537846,
        "name": "angers_parking_1_zidSLMHRY3N",
        "station_id": "angers_parking_1_zidSLMHRY3N"
      },
      {
        "is_virtual_station": true,
        "lat": 47.492645,
        "lon": -0.568404,
        "name": "angers_parking_3_zidQH5UB8GA",
        "station_id": "angers_parking_3_zidQH5UB8GA"
      },
      {
        "is_virtual_station": true,
        "lat": 47.465359,
        "lon": -0.545191,
        "name": "angers_parking_9_zidRVPMDQR3",
        "station_id": "angers_parking_9_zidRVPMDQR3"
      },
      {
        "is_virtual_station": true,
        "lat": 47.477345,
        "lon": -0.559283,
        "name": "angers_parking_1_zidVGBICUKU",
        "station_id": "angers_parking_1_zidVGBICUKU"
      },
      {
        "is_virtual_station": true,
        "lat": 47.477823,
        "lon": -0.567355,
        "name": "angers_parking_2_zidVLZUGBIU",
        "station_id": "angers_parking_2_zidVLZUGBIU"
      },
      {
        "is_virtual_station": true,
        "lat": 47.484222,
        "lon": -0.574311,
        "name": "angers_parking_3_zidPHW4T6FL",
        "station_id": "angers_parking_3_zidPHW4T6FL"
      },
      {
        "is_virtual_station": true,
        "lat": 47.47462,
        "lon": -0.529411,
        "name": "angers_parking_3_zid6S82DZYK",
        "station_id": "angers_parking_3_zid6S82DZYK"
      },
      {
        "is_virtual_station": true,
        "lat": 47.479403,
        "lon": -0.586191,
        "name": "angers_parking_2_zidP5I1NI65",
        "station_id": "angers_parking_2_zidP5I1NI65"
      },
      {
        "is_virtual_station": true,
        "lat": 47.464747,
        "lon": -0.548497,
        "name": "angers_parking_2_zidNY2YUQMM",
        "station_id": "angers_parking_2_zidNY2YUQMM"
      },
      {
        "is_virtual_station": true,
        "lat": 47.470616,
        "lon": -0.544365,
        "name": "angers_parking_2_zidOWHCPXM8",
        "station_id": "angers_parking_2_zidOWHCPXM8"
      },
      {
        "is_virtual_station": true,
        "lat": 47.472019,
        "lon": -0.56724,
        "name": "angers_parking_1_zidUHTLORHN",
        "station_id": "angers_parking_1_zidUHTLORHN"
      },
      {
        "is_virtual_station": true,
        "lat": 47.478693,
        "lon": -0.560579,
        "name": "angers_parking_1_zidKJIYZZWR",
        "station_id": "angers_parking_1_zidKJIYZZWR"
      },
      {
        "is_virtual_station": true,
        "lat": 47.475973,
        "lon": -0.548109,
        "name": "angers_parking_2_zidTF3BLG94",
        "station_id": "angers_parking_2_zidTF3BLG94"
      },
      {
        "is_virtual_station": true,
        "lat": 47.464525,
        "lon": -0.54854,
        "name": "angers_parking_1_zidO6ME56OI",
        "station_id": "angers_parking_1_zidO6ME56OI"
      },
      {
        "is_virtual_station": true,
        "lat": 47.471564,
        "lon": -0.547091,
        "name": "angers_parking_4_zidI2O20YCC",
        "station_id": "angers_parking_4_zidI2O20YCC"
      },
      {
        "is_virtual_station": true,
        "lat": 47.462816,
        "lon": -0.55266,
        "name": "angers_parking_5_zidWVVHIB8B",
        "station_id": "angers_parking_5_zidWVVHIB8B"
      },